Name,GeolocCode,LocationType,CountryState,Latitude,Longitude
NW ATLANTIC,00A1,UNUSED,UNUSED,40,-66
INDIAN OCEAN,00IO,UNUSED,UNUSED,-15,75
WESTERN MED,00XT,UNUSED,UNUSED,40,6
ABBEVILLE,AAFR,UNUSED,UNUSED,31.533333,-85.26667
ABERDEEN PROV GND,AAMP,UNUSED,UNUSED,39.491665,-76.13611
ABIDJAN,AAPV,UNUSED,UNUSED,5.25,-4.016667
ABILENE,AART,UNUSED,UNUSED,32.45,-99.73333
ABILENE RGNL,AARV,UNUSED,UNUSED,32.41139,-99.681946
ABSTON,ABAA,UNUSED,UNUSED,32.35,-86.3625
AD DAMMAM,ABFL,UNUSED,UNUSED,26.433332,50.1
ADELPHI,ABTW,UNUSED,UNUSED,39,-76.95
ADELPHI,ABXK,UNUSED,UNUSED,38.8975,-77.00916
LOS ANGELES,ACJP,UNUSED,UNUSED,34,-118.25
AIEA,ACWE,UNUSED,UNUSED,21.383333,-157.93333
AKRON,ADHB,UNUSED,UNUSED,41.083332,-81.5
AL BAHRAYN MINA S,ADKH,UNUSED,UNUSED,26.2,50.6
AL MAHDIYAH,ADLS,UNUSED,UNUSED,35.5,11.05
ALAMEDA,ADNA,UNUSED,UNUSED,39.70861,-105.013336
ALAMEDA,ADNB,UNUSED,UNUSED,37.733334,-122.23333
ALAMEDA,ADNC,UNUSED,UNUSED,37.783333,-121.48333
ALAMEDA NAS,ADND,UNUSED,UNUSED,37.790554,-122.325554
ALAMEDA,ADNE,UNUSED,UNUSED,37.783333,-121.48333
ALAMEDA NAS,ADNF,UNUSED,UNUSED,37.790554,-122.32445
ALAMEDA,ADNG,UNUSED,UNUSED,37.776943,-122.27
ALAMEDA PT MARAD,ADNK,UNUSED,UNUSED,37.783333,-122.26667
ALAMEDA        BA,ADNR,UNUSED,UNUSED,37.783333,-122.316666
ALAMOGORDO WHITE,ADQM,UNUSED,UNUSED,32.84139,-105.98889
ALBANY,ADUK,UNUSED,UNUSED,31.616667,-84.166664
ALBANY        MSC,ADUP,UNUSED,UNUSED,31.6,-84.083336
ALBANY,ADUQ,UNUSED,UNUSED,31.616667,-84.166664
ALBANY,ADVK,UNUSED,UNUSED,42.666668,-73.8
ALBANY INTL,ADVM,UNUSED,UNUSED,42.74917,-73.80194
SOUTHWEST GEORGIA,ADVN,UNUSED,UNUSED,31.535555,-84.19444
ALBEMARLE,ADXV,UNUSED,UNUSED,35.35,-80.35
ALBERT,ADYK,UNUSED,UNUSED,35.232777,-98.41111
ALBUQUERQUE,AEBS,UNUSED,UNUSED,35.083332,-106.65
ALCOA,AECW,UNUSED,UNUSED,35.783333,-84
ALCONBURY,AEDY,UNUSED,UNUSED,52.3725,-0.21138889
ALEXANDER CITY,AELJ,UNUSED,UNUSED,32.95,-86
ALEXANDRIA,AELU,UNUSED,UNUSED,31.183332,29.9
ALEXANDRIA,AEPL,UNUSED,UNUSED,38.816666,-77.066666
ALEXANDRIA,AEPQ,UNUSED,UNUSED,38.816666,-77.15
ALGECIRAS,AEQT,UNUSED,UNUSED,36.133335,-5.45
ALLENDALE,AFKB,UNUSED,UNUSED,33.016666,-81.3
LEHIGH VALLEY INT,AFMS,UNUSED,UNUSED,40.6525,-75.44055
ALLENTOWN,AFMY,UNUSED,UNUSED,40.6,-75.5
ALTUS AFB,AGGN,UNUSED,UNUSED,34.66639,-99.26806
RICK HUSBAND AMAR,AGWF,UNUSED,UNUSED,35.219444,-101.70583
AMES,AHQM,UNUSED,UNUSED,42.03472,-93.61972
AMITYVILLE,AHTM,UNUSED,UNUSED,40.666668,-73.36667
ANACORTES,AHWQ,UNUSED,UNUSED,48.516666,-122.61667
ANACOSTIA,AHXM,UNUSED,UNUSED,38.866665,-76.98333
ANCHORAGE,AJAM,UNUSED,UNUSED,61.166668,-149.98334
TED STEVENS ANCHO,AJBQ,UNUSED,UNUSED,61.174168,-149.99834
ANCHORAGE,AJBR,UNUSED,UNUSED,61.216667,-149.9
ANCONA,AJGX,UNUSED,UNUSED,43.616665,13.5
ANDERSEN AFB,AJJY,UNUSED,UNUSED,13.583889,144.93
ANDERSON,AJND,UNUSED,UNUSED,40.105278,-85.680275
JOINT BASE ANDREW,AJXF,UNUSED,UNUSED,38.810833,-76.86667
ANDREWS       ANG,AJXH,UNUSED,UNUSED,38.8,-76.86667
ANDREWS AFB,AJXL,UNUSED,UNUSED,38.810833,-76.867226
ANNAPOLIS,AKUS,UNUSED,UNUSED,38.983334,-76.5
ANNAPOLIS,AKUU,UNUSED,UNUSED,38.983334,-76.48333
ANNISTON,AKWB,UNUSED,UNUSED,33.616665,-85.98333
ANNISTON ARMY DEP,AKWQ,UNUSED,UNUSED,33.633335,-85.86667
ANNISTON ARMY DEP,AKWS,UNUSED,UNUSED,33.633335,-85.86667
ANNISTON,AKWU,UNUSED,UNUSED,33.633335,-85.86667
ANSON,ALEX,UNUSED,UNUSED,32.75,-99.916664
ANTWERP,ALRF,UNUSED,UNUSED,51.266666,4.3333335
APPLETON,AMCG,UNUSED,UNUSED,44.25,-88.416664
APRA HARBOR,AMCQ,UNUSED,UNUSED,13.45,144.61667
ARACAY ABAJO,AMES,UNUSED,UNUSED,8.394167,-65.87222
ARDEN HILLS,AMVP,UNUSED,UNUSED,45.05,-93.15222
ARDMORE,AMYJ,UNUSED,UNUSED,34.116665,-97.15
ANNAPOLIS,ANAD,UNUSED,UNUSED,38.988888,-76.49167
ARNOLD,ANZY,UNUSED,UNUSED,35.383335,-86.083336
AS SUKHAYRAH,APFD,UNUSED,UNUSED,34.316666,10.15
ASH SHUWAIKH COMM,APGW,UNUSED,UNUSED,29.35,47.916668
ASHLAND,APKH,UNUSED,UNUSED,33.25,-85.833336
ASHLAND,APNG,UNUSED,UNUSED,40.883335,-82.28333
ASHTART,APRJ,UNUSED,UNUSED,34.283333,11.4
ATHENS,AQEN,UNUSED,UNUSED,34.8,-86.96667
ATHENS,AQEZ,UNUSED,UNUSED,33.95,-83.4
HARTSFIELD JACKSO,AQLM,UNUSED,UNUSED,33.636665,-84.42778
ATLANTA,AQLV,UNUSED,UNUSED,33.75,-84.7
ATLANTA,AQLW,UNUSED,UNUSED,33.5,-84.46667
ATLANTA,AQLZ,UNUSED,UNUSED,33.75,-84.36667
FT GILLEM,AQMV,UNUSED,UNUSED,33.583332,-84.35
ATLANTIC CITY MUN,AQRC,UNUSED,UNUSED,39.36,-74.45611
AUGUSTA,ARNS,UNUSED,UNUSED,33.483334,-82
AUGUSTA RGNL AT B,ARNW,UNUSED,UNUSED,33.37,-81.96445
AUGUSTA,ARPM,UNUSED,UNUSED,37.68667,-97.97639
AUGUSTA,ARPZ,UNUSED,UNUSED,44.333332,-69.75
AURORA,ARTZ,UNUSED,UNUSED,39.729443,-104.83139
AURORA,ARUZ,UNUSED,UNUSED,41.75,-88.316666
AUSTIN,ASAZ,UNUSED,UNUSED,30.266666,-97.71667
AUSTIN STRAUBEL I,ASCE,UNUSED,UNUSED,44.484722,-88.12972
AVIANO AB,ASHE,UNUSED,UNUSED,46.031113,12.596389
MACDILL AFB AUX F,ASPQ,UNUSED,UNUSED,27.650555,-81.34944
BADIN,ATNV,UNUSED,UNUSED,35.166668,-79.03333
BADIN,ATNZ,UNUSED,UNUSED,35.166668,-79.03333
FORT WAYNE INTL,ATQZ,UNUSED,UNUSED,40.97861,-85.195274
BAHRAIN INTL,ATXK,UNUSED,UNUSED,26.268055,50.636944
BAILEYS CROSS RDS,ATYC,UNUSED,UNUSED,38.816666,-77.13333
BAKERSFIELD,AUSJ,UNUSED,UNUSED,35.416668,-119
BALTIMORE,AVBT,UNUSED,UNUSED,39.3,-76.61667
BALTIMORE OUTPORT,AVBU,UNUSED,UNUSED,39.266666,-76.583336
BALTIMORE HLNDS,AVDC,UNUSED,UNUSED,39.344444,-76.625
BANGOR,AVND,UNUSED,UNUSED,44.8,-68.7
BANGOR NAVAL SUBM,AVPN,UNUSED,UNUSED,47.683334,-122.75
BANGOR POMFPAL,AVPR,UNUSED,UNUSED,47.8,-122.6
BANGOR,AVPV,UNUSED,UNUSED,47.8,-122.6
BANZART,AVTB,UNUSED,UNUSED,37.283333,9.883333
BARBERS POINT CGA,AVXS,UNUSED,UNUSED,21.300556,-158.1
KAPOLEI,AVXU,UNUSED,UNUSED,21.3,-158.06667
KALAELOA,AVXV,UNUSED,UNUSED,21.307222,-158.07028
BARBERS POINT NAS,AVXW,UNUSED,UNUSED,21.3,-158.06667
BARCELONA,AVYX,UNUSED,UNUSED,41.35,2.1666667
BARKSDALE AFB,AWUB,UNUSED,UNUSED,32.501945,-93.6625
WESTFIELD BARNES,AXQD,UNUSED,UNUSED,42.158054,-72.715836
BARSTOW       MSC,AYDE,UNUSED,UNUSED,34.9,-117
BARSTOW,AYDK,UNUSED,UNUSED,34.9,-117
BARTH,AYER,UNUSED,UNUSED,54.366665,12.716666
MOBILE RGNL,AYSX,UNUSED,UNUSED,30.69139,-88.242775
BATON ROUGE,AYYX,UNUSED,UNUSED,30.416666,-91.05
BATON ROUGE,AYYY,UNUSED,UNUSED,30.45,-91.1
BATTLE CREEK,AYZZ,UNUSED,UNUSED,42.316666,-85.183334
BAY CITY,AZJH,UNUSED,UNUSED,43.6,-83.86667
BAYONNE,AZTE,UNUSED,UNUSED,40.65,-74.13333
BAYONNE,AZTG,UNUSED,UNUSED,40.683334,-74.1
BANBAN,BACA,UNUSED,UNUSED,24.973612,46.570835
BEALE AFB,BAEY,UNUSED,UNUSED,39.136112,-121.43667
BEALE,BASD,UNUSED,UNUSED,39.133335,-121.433334
BEAUFORT,BBGP,UNUSED,UNUSED,34.716667,-76.666664
BEAUFORT MCAS,BBJM,UNUSED,UNUSED,32.4775,-80.72305
BEAUFORT NAVY,BBJS,UNUSED,UNUSED,32.43667,-80.668335
BEAUMONT T2,BBNQ,UNUSED,UNUSED,30.083334,-94.083336
BEAUMONT,BBNR,UNUSED,UNUSED,30.083334,-94.11667
BEAUMONT,BBNV,UNUSED,UNUSED,30.083334,-94.083336
BEAVER FALLS,BCDZ,UNUSED,UNUSED,40.75,-80.316666
BECKLEY,BCMV,UNUSED,UNUSED,37.733334,-81.28333
BELEN,BDQZ,UNUSED,UNUSED,34.65,-106.78333
BELLE CHASSE,BEGS,UNUSED,UNUSED,29.855,-89.988335
BELLEAIR BLUFFS,BELL,UNUSED,UNUSED,27.921112,-82.81722
BELLINGHAM INTL,BFHX,UNUSED,UNUSED,48.792778,-122.5375
BELLOWS AFS,BFMV,UNUSED,UNUSED,21.366112,-157.71945
BELOIT,BFTZ,UNUSED,UNUSED,42.516666,-89.01667
AUSTIN BERGSTROM,BJHZ,UNUSED,UNUSED,30.194445,-97.67
NASHVILLE INTL,BKTZ,UNUSED,UNUSED,36.124443,-86.67834
BESSEMER,BLMR,UNUSED,UNUSED,33.4,-86.76667
WRNM MEDICAL CTR,BMGM,UNUSED,UNUSED,39.001667,-77.09278
BIG STONE GAP,BPRE,UNUSED,UNUSED,36.833332,-82.78333
BIGGS AAF,BPWZ,UNUSED,UNUSED,31.849445,-106.38
BILLINGS,BQKY,UNUSED,UNUSED,45.783333,-108.5
BINGHAMTON,BQUG,UNUSED,UNUSED,42.1,-75.916664
MUHAMMAD QASIM,BQWA,UNUSED,UNUSED,24.766666,67.333336
BIR EL ATER,BQWK,UNUSED,UNUSED,34.7525,8.075277
BREMERTON,BRAE,UNUSED,UNUSED,47.594444,-122.69028
BIRMINGHAM,BRKM,UNUSED,UNUSED,33.516666,-86.816666
BIRMINGHAM SHUTTL,BRKR,UNUSED,UNUSED,33.56389,-86.75222
BISMARCK,BSEH,UNUSED,UNUSED,46.833332,-100.8
BISMARCK MUNI,BSEM,UNUSED,UNUSED,46.772778,-100.745834
BIZERTE,BSRK,UNUSED,UNUSED,36.85,10.233334
BIZERTE,BSRL,UNUSED,UNUSED,37.283333,9.9
SIDI AHMED AIR BA,BSRR,UNUSED,UNUSED,37.24472,9.792778
BLACKSTONE,BTHP,UNUSED,UNUSED,37.083332,-77.95
BLOOMINGTON,BUWC,UNUSED,UNUSED,40.483334,-88.98333
BLUE ASH,BVGM,UNUSED,UNUSED,39.25,-84.38333
BLUE GRASS DEPOT,BVJS,UNUSED,UNUSED,37.7,-84.21667
BLUE GRASS,BWBU,UNUSED,UNUSED,38.036667,-84.60861
ARKANSAS INTL,BWKR,UNUSED,UNUSED,35.964443,-89.943886
BLYTHEVILLE,BWKV,UNUSED,UNUSED,35.933334,-89.916664
BOISE AIR TERMINA,BXRH,UNUSED,UNUSED,43.564445,-116.22278
BOISE,BXRM,UNUSED,UNUSED,43.633335,-116.166664
BOLLING AFB HELI,BXUR,UNUSED,UNUSED,38.842777,-77.01611
RABAH BITAT,BYKA,UNUSED,UNUSED,36.822224,7.8094444
BONE,BYKC,UNUSED,UNUSED,36.9,7.766667
BONE AND SCHEMES,BYKF,UNUSED,UNUSED,36.916668,7.7833333
CAMP PENDLETON MC,CAAP,UNUSED,UNUSED,33.301388,-117.35528
CAPE CANAVERAL AF,CAAY,UNUSED,UNUSED,28.4675,-80.566666
CP LEJUENE,CABM,UNUSED,UNUSED,34.72278,-77.36472
BOSTON,CAMD,UNUSED,UNUSED,42.35,-71.066666
BOSTON,CAMK,UNUSED,UNUSED,42.366665,-71
BOTHELL,CBEF,UNUSED,UNUSED,47.766666,-122.2
BOWLING GREEN,CCTS,UNUSED,UNUSED,37,-86.45
BRADLEY INTL,CEKT,UNUSED,UNUSED,41.939167,-72.683334
BRANDON,CFGM,UNUSED,UNUSED,32.266666,-89.98333
CHERRY POINT,CHBA,UNUSED,UNUSED,34.906387,-76.9
CHARLESTON,CHBM,UNUSED,UNUSED,32.8,-79.95
BREMERHAVEN,CHCY,UNUSED,UNUSED,53.55,8.55
BREMERTON,CHEV,UNUSED,UNUSED,47.566666,-122.65
BREMERTON SEALAND,CHEX,UNUSED,UNUSED,47.566666,-122.65
BRENHAM,CHJY,UNUSED,UNUSED,30.15,-96.4
BREVARD,CHSY,UNUSED,UNUSED,35.266666,-82.75
BRIDGETON,CJJY,UNUSED,UNUSED,38.783333,-90.46667
BRISTOL,CKMQ,UNUSED,UNUSED,40.1,-74.86667
CLEAR CREEK,CLAG,UNUSED,UNUSED,64.45333,-147.56361
BROCKTON,CLCH,UNUSED,UNUSED,42.1,-71.01667
BROKEN ARROW,CLLH,UNUSED,UNUSED,36.066666,-95.8
BRONX,CLXR,UNUSED,UNUSED,40.833332,-73.86667
BROOKINGS,CMHF,UNUSED,UNUSED,44.316666,-96.78333
BROOKLYN,CMMC,UNUSED,UNUSED,40.666668,-73.96667
BROOKLYN,CMXJ,UNUSED,UNUSED,40.711945,-73.969444
BROOKPARK,CMZJ,UNUSED,UNUSED,41.4,-81.816666
BROOKS CITY BASE,CNBC,UNUSED,UNUSED,29.34639,-98.431946
BROUSSARD,CNRA,UNUSED,UNUSED,30.146944,-91.96139
CORPUS CHRISTI,CPBE,UNUSED,UNUSED,27.687778,-97.26639
BROWNSVILLE,CPJF,UNUSED,UNUSED,40.016666,-79.9
BROWNSVILLE,CPNF,UNUSED,UNUSED,25.916666,-97.5
BRUNSWICK,CQJP,UNUSED,UNUSED,31.15,-81.5
BRUNSWICK EXECUTI,CQLW,UNUSED,UNUSED,43.8925,-69.93889
BUCKLEY AFB,CRWU,UNUSED,UNUSED,39.701668,-104.75166
BUECHEL,CSEM,UNUSED,UNUSED,38.2,-85.63333
BUFFALO,CSHW,UNUSED,UNUSED,42.866665,-78.86667
BUFFALO,CSJF,UNUSED,UNUSED,45.166668,-93.833336
BUFFALO,CSKQ,UNUSED,UNUSED,42.883335,-78.88333
USAF ACADEMY BULL,CTCN,UNUSED,UNUSED,38.758335,-104.30666
GRISSOM AFRES,CTGB,UNUSED,UNUSED,40.66,-86.14167
GRISSOM ARB,CTGC,UNUSED,UNUSED,40.648056,-86.15222
BURLINGTON INTL,CURZ,UNUSED,UNUSED,44.471943,-73.153336
BUTLER,CVLD,UNUSED,UNUSED,40.85,-79.9
BUTNER,CVLK,UNUSED,UNUSED,36.133335,-78.76667
BUTTS AAF,CVPF,UNUSED,UNUSED,38.678333,-104.75667
RICHMOND INTL,CVVM,UNUSED,UNUSED,37.50528,-77.319725
CADILLAC,CWBG,UNUSED,UNUSED,44.233334,-85.36667
CADIZ,CWCE,UNUSED,UNUSED,40.3,-81
CADIZ,CWCP,UNUSED,UNUSED,36.383335,-6.284167
CAGAYAN DE ORO,CWGV,UNUSED,UNUSED,8.5,124.65
CP LEJEUNE,CWKR,UNUSED,UNUSED,34.666668,-77.333336
CAIRO WEST,CWKW,UNUSED,UNUSED,30.116388,30.915556
CALDWELL,CWWK,UNUSED,UNUSED,43.65,-116.666664
CAMDEN,CYCQ,UNUSED,UNUSED,33.516666,-92.833336
CAMDEN,CYEQ,UNUSED,UNUSED,39.933334,-75.11667
CAMDEN,CYJU,UNUSED,UNUSED,34.266666,-80.6
CP J T ROBINSON,CYPV,UNUSED,UNUSED,34.116665,-92.03333
CAMP H M SMITH,CYTW,UNUSED,UNUSED,21.319166,-157.92944
CAMPBELL AAF,CYWF,UNUSED,UNUSED,36.66861,-87.49611
CANDO,CZJF,UNUSED,UNUSED,48.483334,-99.2
CANNON AFB,CZQZ,UNUSED,UNUSED,34.3825,-103.3225
CAPE GIRARDEAU,DBMT,UNUSED,UNUSED,37.316666,-89.51667
CAPE MAY,DBRT,UNUSED,UNUSED,39.083332,-74.816666
ABRAHAM LINCOLN C,DCFT,UNUSED,UNUSED,39.844166,-89.678055
FORT WORTH NAS JR,DDPF,UNUSED,UNUSED,32.769165,-97.441666
CARSWELL,DDPK,UNUSED,UNUSED,32.783333,-97.433334
CARSWELL,DDQW,UNUSED,UNUSED,32.733334,-97.433334
CARTHAGE,DEFW,UNUSED,UNUSED,37.166668,-94.333336
CASPER,DERM,UNUSED,UNUSED,42.833332,-106.333336
CASTLE,DESR,UNUSED,UNUSED,37.380554,-120.56834
CECIL,DGAB,UNUSED,UNUSED,30.21889,-81.87722
CEDAR RAPIDS,DGGB,UNUSED,UNUSED,42.008335,-91.64389
CEDAR RAPIDS,DGGD,UNUSED,UNUSED,41.966667,-91.66472
CENTERVILLE,DGXC,UNUSED,UNUSED,32.933334,-87.13333
CHAMBERSBURG,DHQB,UNUSED,UNUSED,39.95,-77.666664
CHAMBLEE,DHRF,UNUSED,UNUSED,33.583332,-84.36667
CHANNEL ISLANDS A,DJCF,UNUSED,UNUSED,34.141666,-119.111115
CHARLESTON,DKAD,UNUSED,UNUSED,35.3,-94.047226
JB CHARLESTON,DKFX,UNUSED,UNUSED,32.898613,-80.04056
CHARLESTON NAVY,DKFY,UNUSED,UNUSED,32.783333,-79.916664
NORTH CHARLESTON,DKGJ,UNUSED,UNUSED,32.90333,-79.97972
CHARLESTON,DKGK,UNUSED,UNUSED,32.8,-79.96667
CHARLESTON,DKGL,UNUSED,UNUSED,32.77639,-79.93139
CHARLESTON    NWS,DKGT,UNUSED,UNUSED,32.9,-80.03333
CHARLESTON,DKSD,UNUSED,UNUSED,32.783333,-79.916664
CHARLESTON NAVY,DKTB,UNUSED,UNUSED,32.763332,-79.93
CHARLESTON,DKTT,UNUSED,UNUSED,38.35,-81.76667
CHARLESTON,DKTX,UNUSED,UNUSED,38.366665,-81.63333
CHARLESTON NAV YD,DKVL,UNUSED,UNUSED,32.9,-80.03333
CHARLOTTE,DLAL,UNUSED,UNUSED,35.233334,-80.833336
CHATTANOOGA,DLUL,UNUSED,UNUSED,36.016666,-86.51667
CHEATHAM ANX  NSC,DLZC,UNUSED,UNUSED,37.25,-76.666664
CHEROKEE,DNJC,UNUSED,UNUSED,42.749443,-95.55139
CHERRY POINT,DNNH,UNUSED,UNUSED,34.9,-76.88333
CHERRY POINT MCAS,DNNL,UNUSED,UNUSED,34.900833,-76.88084
MCAS CHERRY POINT,DNNM,UNUSED,UNUSED,34.9,-76.86667
CHESTER,DNRV,UNUSED,UNUSED,39.833332,-75.38333
CHEYENNE,DPEV,UNUSED,UNUSED,41.133335,-104.833336
CHEYENNE RGNL JER,DPEZ,UNUSED,UNUSED,41.155556,-104.810555
CHEYENNE MT CMPLX,DPFM,UNUSED,UNUSED,38.816666,-104.71667
CHICAGO,DPLX,UNUSED,UNUSED,41.883335,-87.6
CHICAGO,DPMA,UNUSED,UNUSED,42.083332,-87.816666
CHICAGO,DPMD,UNUSED,UNUSED,41.833332,-87.75
CHICAGO OHARE INT,DPMZ,UNUSED,UNUSED,41.981667,-87.90667
OHARE,DPNB,UNUSED,UNUSED,41.978054,-87.90611
CHICAGO RIDGE,DPNV,UNUSED,UNUSED,41.70139,-87.77917
CHICOPEE,DPYZ,UNUSED,UNUSED,42.183334,-72.61667
CHINHAE,DRUG,UNUSED,UNUSED,35.133335,128.66667
CHIPPEWA FALLS,DRYL,UNUSED,UNUSED,43.166668,-87.96667
CINCINNATI NORTHE,DTVB,UNUSED,UNUSED,39.04889,-84.66778
CINCINNATI,DTVP,UNUSED,UNUSED,39.1,-84.5
CINCINNATI,DTWB,UNUSED,UNUSED,39.433334,-84.5
CLACKAMAS,DUHW,UNUSED,UNUSED,45.416668,-122.583336
CLARION,DVGK,UNUSED,UNUSED,41.216667,-79.38333
DIOSDADO MACAPAGA,DVLK,UNUSED,UNUSED,15.186111,120.56028
CLARKSBURG,DVYP,UNUSED,UNUSED,39.266666,-80.35
CLEAR FORK,DXFX,UNUSED,UNUSED,37.630833,-81.68305
CLEVELAND HOPKINS,DYCS,UNUSED,UNUSED,41.409443,-81.855
CLEVELAND NAVY,DYCZ,UNUSED,UNUSED,41.5,-81.7
CLEVELAND,DYDV,UNUSED,UNUSED,35.15,-84.88333
CLINTON,DYVS,UNUSED,UNUSED,42.416668,-71.683334
CLINTON,DYWP,UNUSED,UNUSED,32.336945,-90.329445
CLINTON,DYXQ,UNUSED,UNUSED,35,-78.316666
CLOVIS,EAPD,UNUSED,UNUSED,34.4,-103.183334
CLYDE,EAQQ,UNUSED,UNUSED,35.533333,-82.916664
MIDDLE GEORGIA RG,EAZP,UNUSED,UNUSED,32.69278,-83.64917
COLOMBO,EDME,UNUSED,UNUSED,6.9333334,79.85
COLORADO SPRINGS,EDUG,UNUSED,UNUSED,38.766666,-104.8
COLORADO SPRINGS,EDUJ,UNUSED,UNUSED,38.83389,-104.82083
COLTS NECK,EDVT,UNUSED,UNUSED,40.283333,-74.183334
COLUMBIA,EDWC,UNUSED,UNUSED,38.030556,-120.414444
COLUMBIA,EDYN,UNUSED,UNUSED,38.966667,-92.333336
COLUMBIA,EEBS,UNUSED,UNUSED,34,-81
COLUMBUS,EEHR,UNUSED,UNUSED,32.466667,-84.98333
COLUMBUS,EEMW,UNUSED,UNUSED,32.516388,-84.93889
COLUMBUS AFB,EEPZ,UNUSED,UNUSED,33.64528,-88.44583
COLUMBUS,EFGH,UNUSED,UNUSED,39.816666,-82.933334
COLUMBUS,EFGV,UNUSED,UNUSED,39.966667,-83
COLUMBUS ARMY DEP,EFGX,UNUSED,UNUSED,39.983334,-82.916664
COLUMBUS,EFHH,UNUSED,UNUSED,39.976387,-82.905556
COMPTON,EGDZ,UNUSED,UNUSED,33.883335,-118.3
CONCORD,EGNA,UNUSED,UNUSED,37.983334,-122.05
CONCORD,EGND,UNUSED,UNUSED,37.983334,-122.05
CONCORD       NWS,EGNF,UNUSED,UNUSED,37.983334,-122.05
CONCORD,EGNN,UNUSED,UNUSED,37.933334,-121.933334
CONNELLSVILLE,EHNP,UNUSED,UNUSED,40.016666,-79.583336
CONWAY,EJSP,UNUSED,UNUSED,35.066666,-92.416664
COOS BAY,EKWU,UNUSED,UNUSED,43.383335,-124.2
COOS HEAD,EKWW,UNUSED,UNUSED,42.166668,-124.166664
CORONADO,EMVX,UNUSED,UNUSED,32.7,-117.166664
CORONADO SD   NPB,EMVY,UNUSED,UNUSED,32.666668,-117.166664
CORPUS CHRISTI,ENCB,UNUSED,UNUSED,27.683332,-97.26667
CORPUS CHRISTI,ENCF,UNUSED,UNUSED,27.8,-97.4
CORPUS CHRISTI,ENCJ,UNUSED,UNUSED,27.690556,-97.289444
CORPUS CHRISTI NA,ENCK,UNUSED,UNUSED,27.692778,-97.290276
CORPUS CHRISTI NA,ENCN,UNUSED,UNUSED,27.816668,-97.4
ENID,ENID,UNUSED,UNUSED,36.427223,-97.88167
COUNCIL BLUFFS,EPKA,UNUSED,UNUSED,41.261944,-95.86083
COVENTRY,EQDF,UNUSED,UNUSED,41.720833,-71.59889
FT A P HILL,EQYH,UNUSED,UNUSED,38.116665,-77.25
CP ATTERBURY,ERCH,UNUSED,UNUSED,39.35,-86.03333
CP BEAUREGARD,ERDH,UNUSED,UNUSED,31.316668,-92.416664
CP BLANDING,ERDY,UNUSED,UNUSED,30,-81.98333
ERIE,ERIE,UNUSED,UNUSED,42.135555,-80.0525
CP DAWSON,ERUW,UNUSED,UNUSED,39.45,-79.71667
CP DODGE,ESBW,UNUSED,UNUSED,42.55,-94.183334
FT DRUM,ESGM,UNUSED,UNUSED,44.05,-75.73333
CP ELMORE,ESHH,UNUSED,UNUSED,36.93722,-76.28972
CP EDWARDS,ESLM,UNUSED,UNUSED,41.533333,-70.61667
CP GRAYLING,ESPS,UNUSED,UNUSED,44.666668,-84.666664
CAMP LEJEUNE,ETFA,UNUSED,UNUSED,34.666668,-77.333336
CP LEJEUNE,ETFB,UNUSED,UNUSED,34.666668,-77.333336
FT MCCOY,ETMB,UNUSED,UNUSED,44.1,-90.683334
CP MURRAY,ETRB,UNUSED,UNUSED,47.116665,-122.566666
CP PENDLETON NAVY,ETVL,UNUSED,UNUSED,33.316666,-117.38333
CP PARKS,ETVM,UNUSED,UNUSED,37.730556,-121.90139
CP PENDLETON,ETZB,UNUSED,UNUSED,33.316666,-117.38333
CP PENDLETON,ETZC,UNUSED,UNUSED,33.316666,-117.38333
CP PERRY,EUBC,UNUSED,UNUSED,41.533333,-83.025
FT PICKETT,EUDB,UNUSED,UNUSED,37.05,-77.933334
CP RAPID,EUFG,UNUSED,UNUSED,44.1,-103.23333
CP RILEA,EUFM,UNUSED,UNUSED,46.116665,-123.96667
CP RIPLEY,EUFN,UNUSED,UNUSED,44.066666,-96.76667
CP ROBERTS,EUHB,UNUSED,UNUSED,35.832222,-120.743614
CP ROBINSON,EUKB,UNUSED,UNUSED,34.833332,-92.3
CP SHELBY,EURB,UNUSED,UNUSED,31.158333,-89.316666
CP SMITH,EUVB,UNUSED,UNUSED,21.366667,-157.91667
CP SMITH      MCC,EUVH,UNUSED,UNUSED,21.366667,-157.91667
CP SMITH       BA,EUVJ,UNUSED,UNUSED,21.3,-157.88333
CAMP H M SMITH,EUVK,UNUSED,UNUSED,21.333334,-157.91417
CRANE,EWFK,UNUSED,UNUSED,39.716667,-86.26667
CRANE         AAP,EWFL,UNUSED,UNUSED,39.716667,-86.26667
CRESCENT CITY,EWYN,UNUSED,UNUSED,41.75,-124.333336
CRESTON,EXAN,UNUSED,UNUSED,41.058613,-94.361115
CRESTVIEW,EXCN,UNUSED,UNUSED,30.816668,-86.55
CROCKETT,EXGM,UNUSED,UNUSED,38.05,-122.21667
SUBIC BAY INTL,EYBD,UNUSED,UNUSED,14.794444,120.271385
DADEVILLE,EZGG,UNUSED,UNUSED,32.8,-85.76667
DAHLGREN,EZHK,UNUSED,UNUSED,38.331112,-77.05139
DAKAR,EZMU,UNUSED,UNUSED,14.683333,-17.433332
DALLAS FORT WORTH,EZSE,UNUSED,UNUSED,32.896946,-97.038055
DALLAS,EZTC,UNUSED,UNUSED,32.283333,-96.78333
MILLENNIUM DALLAS,EZTH,UNUSED,UNUSED,32.734722,-96.9675
DALLAS AFIT 02,EZTV,UNUSED,UNUSED,32.783333,-96.8
DALLAS AFIT 03,EZTW,UNUSED,UNUSED,32.783333,-96.8
DAM NECK,EZXV,UNUSED,UNUSED,36.833332,-76
DANA POINT,FAFL,UNUSED,UNUSED,33.466667,-117.71667
MONTGOMERY RGNL,FAKZ,UNUSED,UNUSED,32.300556,-86.39389
DANVILLE,FAQZ,UNUSED,UNUSED,40.15,-87.61667
DARMSTADT AAF,FAXN,UNUSED,UNUSED,49.853333,8.5847225
DAVENPORT,FBDH,UNUSED,UNUSED,41.523613,-90.5775
OWENSBORO DAVIESS,FBMV,UNUSED,UNUSED,37.738888,-87.16695
DAVIS MONTHAN AFB,FBNV,UNUSED,UNUSED,32.16639,-110.88306
DAVIS MONTHAN,FBPW,UNUSED,UNUSED,32.166668,-110.88333
DAYTON,FCHZ,UNUSED,UNUSED,39.75,-84.2
DAYTON DESC,FCKD,UNUSED,UNUSED,39.75,-84.166664
DAYTONA BEACH,FCLF,UNUSED,UNUSED,29.233334,-81.05
DECATUR,FCXN,UNUSED,UNUSED,34.583332,-87
DEF DEPOT OGDEN,FDHB,UNUSED,UNUSED,41.233334,-111.75
DELAWARE,FDVA,UNUSED,UNUSED,40.283333,-83.05
DEMOPOLIS,FEDX,UNUSED,UNUSED,32.466667,-87.416664
DENVER,FEQM,UNUSED,UNUSED,39.739166,-104.98417
DENVER,FERR,UNUSED,UNUSED,39.765278,-104.87945
DENVER INTL,FERX,UNUSED,UNUSED,39.861668,-104.67306
DES MOINES,FFAJ,UNUSED,UNUSED,41.600555,-93.60889
DES MOINES INTL,FFAR,UNUSED,UNUSED,41.53389,-93.663055
DETROIT,FFJF,UNUSED,UNUSED,42.333332,-83
DETROIT,FFJG,UNUSED,UNUSED,42.6,-82.833336
DETROIT MET,FFKG,UNUSED,UNUSED,42.383335,-83.083336
DEXTER,FFRS,UNUSED,UNUSED,45.016666,-69.26667
DEXTER,FFSQ,UNUSED,UNUSED,36.783333,-89.95
DIEGO GARCIA EAST,FGDB,UNUSED,UNUSED,-7.35,72.46667
DIEGO GARCIA NSF,FGDC,UNUSED,UNUSED,-7.3133335,72.41111
DIEGO GARCIA,FGDD,UNUSED,UNUSED,-7.2555556,72.405556
DJERBA,FGTS,UNUSED,UNUSED,33.833332,11
DJERBA,FGTW,UNUSED,UNUSED,33.833332,10.833333
DJEDEIDA,FGTZ,UNUSED,UNUSED,36.86222,9.931111
DOBBINS ARB,FGWB,UNUSED,UNUSED,33.91528,-84.51639
DOBBINS       ANG,FGWD,UNUSED,UNUSED,33.916668,-84.51667
DOTHAN,FJMG,UNUSED,UNUSED,31.183332,-85.35
DOTHAN RGNL,FJMK,UNUSED,UNUSED,31.321112,-85.44945
DOUGLAS,FJPP,UNUSED,UNUSED,31.35,-109.5
CHARLOTTE DOUGLAS,FJRP,UNUSED,UNUSED,35.21361,-80.949165
DOVER AFB,FJXT,UNUSED,UNUSED,39.129444,-75.465836
DOVER,FJYB,UNUSED,UNUSED,39.158054,-75.52472
DOVER,FKJG,UNUSED,UNUSED,39.106388,-75.50222
DOVER,FKLJ,UNUSED,UNUSED,40.883335,-74.566666
DOVER,FKLK,UNUSED,UNUSED,40.883335,-74.55
BANGOR INTL,FKNN,UNUSED,UNUSED,44.8075,-68.82806
DRAPER,FLMT,UNUSED,UNUSED,40.533333,-111.85
DRIGGS,FLUP,UNUSED,UNUSED,43.75,-111.083336
DUBAI,FMAZ,UNUSED,UNUSED,25.25,55.266666
DUBLIN,FMCH,UNUSED,UNUSED,32.516666,-82.9
DUBUQUE,FMEN,UNUSED,UNUSED,42.500557,-90.664444
WASHINGTON DULLES,FMJN,UNUSED,UNUSED,38.9475,-77.46
DULUTH,FMKT,UNUSED,UNUSED,46.782223,-92.10667
DULUTH,FMKZ,UNUSED,UNUSED,46.816666,-92.083336
DULUTH INTL,FMLH,UNUSED,UNUSED,46.842224,-92.19361
DULUTH,FMLT,UNUSED,UNUSED,46.766666,-92.1
DULLES,FMNJ,UNUSED,UNUSED,38.983334,-77.416664
DURBAN,FNLD,UNUSED,UNUSED,-29.966667,30.966667
DURHAM,FNQD,UNUSED,UNUSED,36,-78.9
DUTCH HARBOR,FNSH,UNUSED,UNUSED,53.916668,-166.6
DYERSBURG,FNVH,UNUSED,UNUSED,36.033333,-89.35
DYESS AFB,FNWZ,UNUSED,UNUSED,32.418335,-99.85667
FORD ISLAND NALF,FPAA,UNUSED,UNUSED,21.365,-157.95972
E LANSING,FPZW,UNUSED,UNUSED,42.783333,-84.833336
EAST POINT,FQLT,UNUSED,UNUSED,33.666668,-84.45
E ST LOUIS,FQNZ,UNUSED,UNUSED,38.6,-90.15
E WINDSOR,FQQZ,UNUSED,UNUSED,41.85,-72.6
EARLE NWS,FQZF,UNUSED,UNUSED,40.016666,-74.6
EARLE NWS,FQZJ,UNUSED,UNUSED,40.016666,-74.6
EATON,FRLV,UNUSED,UNUSED,39.75,-84.63333
EAU CLAIRE,FRPD,UNUSED,UNUSED,44.8,-91.5
EBENSBURG,FRRD,UNUSED,UNUSED,40.433334,-78.75
EDGEFIELD,FRYQ,UNUSED,UNUSED,33.783333,-81.933334
EDGEMONT,FSAD,UNUSED,UNUSED,40.25,-76.95
EDGEWOOD ARSENAL,FSCD,UNUSED,UNUSED,39.383335,-76.28333
EDINGER FIELD,FSJA,UNUSED,UNUSED,44.004723,-88.870834
EDWARDS AFB,FSPM,UNUSED,UNUSED,34.918056,-117.879166
DUKE FLD,FTEP,UNUSED,UNUSED,30.648611,-86.52194
EGLIN AFB,FTET,UNUSED,UNUSED,30.466667,-86.48333
HURLBURT FLD,FTEV,UNUSED,UNUSED,30.427778,-86.68916
EGLIN AFB,FTFA,UNUSED,UNUSED,30.483334,-86.525276
EIELSON AFB,FTQW,UNUSED,UNUSED,64.66556,-147.1014
EL AOUINA,FTXW,UNUSED,UNUSED,36.85,10.233334
EL BORMA,FTZH,UNUSED,UNUSED,31.703888,9.254167
EL KALA,FUPD,UNUSED,UNUSED,36.9,8.433333
THYNA,FUQN,UNUSED,UNUSED,34.71639,10.691667
EL PASO,FUTD,UNUSED,UNUSED,31.766666,-106.46667
EL PASO INTL,FUTL,UNUSED,UNUSED,31.807222,-106.37639
EL TORO MCAS,FUZD,UNUSED,UNUSED,33.673332,-117.73
ELIZABETHPORT,FVMT,UNUSED,UNUSED,40.65,-74.183334
ELKO,FWEV,UNUSED,UNUSED,40.816666,-115.78333
ELLICOTT CITY,FWHZ,UNUSED,UNUSED,39.216667,-76.8
ELLINGTON,FWJH,UNUSED,UNUSED,29.607222,-95.15889
ELLSWORTH AFB,FXBM,UNUSED,UNUSED,44.145,-103.103615
ELMENDORF,FXQZ,UNUSED,UNUSED,61.233334,-149.9
JB ELMENDORF-RICH,FXSB,UNUSED,UNUSED,61.25139,-149.8064
ELMENDORF,FXSK,UNUSED,UNUSED,61.25,-149.8
ENCINO,GAFH,UNUSED,UNUSED,34.166668,-118.46667
ALEXANDRIA INTL,GAMH,UNUSED,UNUSED,31.3275,-92.548615
KINGSTON G1,GATE,UNUSED,UNUSED,41.94278,-74.00611
EPHRATA,GCCW,UNUSED,UNUSED,47.316666,-119.55
ERIE,GCRR,UNUSED,UNUSED,42.133335,-80.03333
ESLER RGNL,GEQZ,UNUSED,UNUSED,31.395,-92.29583
EUGENE,GFPP,UNUSED,UNUSED,44.05,-123.066666
EUREKA,GFVP,UNUSED,UNUSED,40.816666,-124.166664
EUTAW,GGAD,UNUSED,UNUSED,32.833332,-87.86667
EVANSVILLE,GGFX,UNUSED,UNUSED,37.974724,-87.55583
EVERETT,GGNF,UNUSED,UNUSED,47.983334,-122.2
EVERETT,GGNJ,UNUSED,UNUSED,48,-122.21667
FRANCIS E WARREN,GHLN,UNUSED,UNUSED,41.133335,-104.867226
F E WARREN AFB,GHZO,UNUSED,UNUSED,41.2,-104.833336
FAIRBANKS,GJFV,UNUSED,UNUSED,64.85,-147.71666
FAIRBANKS INTL,GJFZ,UNUSED,UNUSED,64.815,-147.85638
FAIRCHILD AFB,GJKZ,UNUSED,UNUSED,47.615,-117.65583
FAIRFIELD,GKLX,UNUSED,UNUSED,41.14111,-73.26417
FAIRFORD,GKVB,UNUSED,UNUSED,51.683334,-1.79
FAIRMONT,GKZK,UNUSED,UNUSED,39.5,-80.2
SCHRIEVER AFB,GLEN,UNUSED,UNUSED,38.833332,-104.833336
FALLON NAS,GLRZ,UNUSED,UNUSED,39.417778,-118.69861
FALLS CHURCH,GLTD,UNUSED,UNUSED,38.9,-77.183334
FALLBROOK,GLZN,UNUSED,UNUSED,33.383335,-117.25
FAR ROCKAWAY,GMGG,UNUSED,UNUSED,40.6,-73.75
FARRELL,GNMJ,UNUSED,UNUSED,41.216667,-80.5
FAYETTEVILLE,GNYJ,UNUSED,UNUSED,35.05,-79.88333
FELIXSTOWE,GPEN,UNUSED,UNUSED,51.95,1.3166667
FELKER AAF,GPGK,UNUSED,UNUSED,37.1325,-76.60861
GROTON NEW LONDON,GRAQ,UNUSED,UNUSED,41.33,-72.04528
GROTON,GRBE,UNUSED,UNUSED,41.398888,-72.08806
FITZSIMONS GENRL,GRRY,UNUSED,UNUSED,39.733334,-104.833336
FLORENCE,GTVP,UNUSED,UNUSED,34.2,-79.73333
FLUSHING,GUDX,UNUSED,UNUSED,40.716667,-73.833336
FOLSOM,GUHN,UNUSED,UNUSED,39.883335,-75.3
FORBES FLD,GUQE,UNUSED,UNUSED,38.950832,-95.66361
FORD ISLAND,GUYP,UNUSED,UNUSED,21.366667,-157.96666
JBPH-H FORD ISLAN,GUYU,UNUSED,UNUSED,21.366667,-157.96666
FOREST PARK,GVDN,UNUSED,UNUSED,41.866665,-87.8
FOREST PARK,GVEZ,UNUSED,UNUSED,33.633335,-84.333336
FOREST PARK,GVGZ,UNUSED,UNUSED,41.866665,-87.8
WAYNESVILLE ST RO,GWAW,UNUSED,UNUSED,37.741665,-92.14083
PENSACOLA NAS,GWDD,UNUSED,UNUSED,30.353333,-87.318054
FOS,GWZP,UNUSED,UNUSED,43.4,4.866667
FOUR LAKES,GXTN,UNUSED,UNUSED,47.633335,-117.65
FRANKFORT,GYPS,UNUSED,UNUSED,38.216667,-84.833336
FRANKFURT MAIN,GYRZ,UNUSED,UNUSED,50.033333,8.570556
FREEPORT,HAAZ,UNUSED,UNUSED,30.498056,-86.13611
FREEPORT,HABZ,UNUSED,UNUSED,42.3,-89.61667
FREEPORT,HAGC,UNUSED,UNUSED,29,-95.4
FRESNO YOSEMITE I,HAWR,UNUSED,UNUSED,36.77639,-119.71861
FRESNO,HAWS,UNUSED,UNUSED,36.783333,-119.833336
FREEWAY,HAYS,UNUSED,UNUSED,-25.474167,28.289722
FRESNO IAP,HAYW,UNUSED,UNUSED,36.77111,-119.71361
BALTIMORE WASHING,HBFB,UNUSED,UNUSED,39.175278,-76.668335
FT BELVOIR,HCHL,UNUSED,UNUSED,38.683334,-77.13333
FT BEN HARRISON,HCKL,UNUSED,UNUSED,39.85,-85.98333
FT BENNING,HCML,UNUSED,UNUSED,32.383335,-84.88333
FT BLISS,HCRL,UNUSED,UNUSED,31.8,-106.416664
FT BRAGG,HCTG,UNUSED,UNUSED,39.45,-123.816666
FT BRAGG,HCTL,UNUSED,UNUSED,35.133335,-78.98333
FT BRAGG,HCTM,UNUSED,UNUSED,35.133335,-79
FT CAMPBELL,HDBL,UNUSED,UNUSED,36.666668,-87.48333
FT CARSON,HDDL,UNUSED,UNUSED,38.683334,-104.76667
FT CHAFFEE,HDFL,UNUSED,UNUSED,35.3,-94.28333
FT DEPOSIT,HEDM,UNUSED,UNUSED,31.983889,-86.56834
FT DEPOSIT,HEDR,UNUSED,UNUSED,31.966667,-86.6
FT DERUSSY,HEFA,UNUSED,UNUSED,21.283333,-157.85
FT DES MOINES,HEFE,UNUSED,UNUSED,41.583332,-93.583336
FT DETRICK,HEFL,UNUSED,UNUSED,39.433334,-77.35
FT DEVENS,HEHL,UNUSED,UNUSED,42.533333,-71.566666
FT DIX,HEKP,UNUSED,UNUSED,40.016666,-74.86667
FT DIX,HEKQ,UNUSED,UNUSED,40.033333,-74.63333
FT DODGE,HEMP,UNUSED,UNUSED,42.4975,-94.16778
FT DODGE,HEMT,UNUSED,UNUSED,42.516666,-94.166664
FT DOUGLAS,HEPT,UNUSED,UNUSED,40.766666,-111.833336
FT EUSTIS,HERT,UNUSED,UNUSED,37.15,-76.583336
FT GEORGE MEADE,HEZW,UNUSED,UNUSED,39.1,-76.71667
FT GORDON,HFDZ,UNUSED,UNUSED,33.416668,-82.13333
FT HAMILTON,HFHZ,UNUSED,UNUSED,40.583332,-74.03333
FT HAYES,HFMZ,UNUSED,UNUSED,39.983334,-82.98333
FT HOOD,HFTZ,UNUSED,UNUSED,31.133333,-97.76667
FT HUACHUCA,HFVZ,UNUSED,UNUSED,31.55,-110.333336
FT IRWIN,HFXZ,UNUSED,UNUSED,35.383335,-116.583336
FT WAINWRIGHT AAF,HFZY,UNUSED,UNUSED,64.833336,-147.58333
FT WAINWRIGHT,HFZZ,UNUSED,UNUSED,64.833336,-147.58333
FT JACKSON,HGBZ,UNUSED,UNUSED,34.05,-80.933334
FT KNOX,HGFW,UNUSED,UNUSED,37.916668,-85.96667
FT KNOX,HGFZ,UNUSED,UNUSED,37.9,-85.98333
FT LAWTON,HGLC,UNUSED,UNUSED,47.65,-122.4
FT LEAVENWORTH,HGNC,UNUSED,UNUSED,39.35,-94.916664
FT LEE,HGQC,UNUSED,UNUSED,37.216667,-77.38333
FT LEE,HGQH,UNUSED,UNUSED,37.216667,-77.333336
FT LEONARD WOOD,HGSH,UNUSED,UNUSED,37.733334,-92.11667
JBLM LEWIS,HGUH,UNUSED,UNUSED,47.083332,-122.6
FT MCCOY,HHFD,UNUSED,UNUSED,29.364721,-81.967224
FT MEADE,HHHC,UNUSED,UNUSED,39.670834,-76.76
FT MEADE,HHHD,UNUSED,UNUSED,27.716667,-81.816666
FT MCCLELLAN,HHJL,UNUSED,UNUSED,33.7,-85.76667
FT MEADE,HHKD,UNUSED,UNUSED,44.416668,-103.46667
FT MCNAIR,HHNL,UNUSED,UNUSED,38.866665,-77.066666
FT MCPHERSON,HHQL,UNUSED,UNUSED,33.7,-84.416664
FT MONMOUTH,HHYL,UNUSED,UNUSED,40.3,-74.05
FT MYER,HJCQ,UNUSED,UNUSED,38.916668,-77.166664
FT ORD,HJMC,UNUSED,UNUSED,36.658333,-121.808334
FT PIERCE,HJTH,UNUSED,UNUSED,27.466667,-80.333336
FORT PIERCE,HJTL,UNUSED,UNUSED,27.466667,-80.333336
FT STEWART,HJUT,UNUSED,UNUSED,31.833334,-81.666664
FT POLK,HJVH,UNUSED,UNUSED,31.033333,-93.183334
FT POLK,HJVJ,UNUSED,UNUSED,31.066668,-93.2
FT RICHARDSON,HJZH,UNUSED,UNUSED,61.25,-149.75
FT RICHARDSON,HJZJ,UNUSED,UNUSED,61.25,-149.78334
FT RILEY,HKBN,UNUSED,UNUSED,39.166668,-96.816666
FT ROSECRANS,HKEN,UNUSED,UNUSED,32.683334,-117.23333
FT RUCKER,HKFN,UNUSED,UNUSED,31.316668,-85.73333
FT RUGER,HKGN,UNUSED,UNUSED,21.266666,-157.81667
FT SAM HOUSTON,HKHN,UNUSED,UNUSED,29.45,-98.45
FT SHAFTER,HKJN,UNUSED,UNUSED,21.3,-157.88333
FT SHERIDAN,HKLN,UNUSED,UNUSED,42.216667,-87.8
FT SILL,HKNN,UNUSED,UNUSED,34.65,-98.4
FT SMITH,HKRV,UNUSED,UNUSED,35.366665,-94.45
FORT SMITH RGNL,HKRZ,UNUSED,UNUSED,35.336666,-94.3675
FT SNELLING,HKSZ,UNUSED,UNUSED,44.9,-93.2
FT STEWART,HKUZ,UNUSED,UNUSED,31.85,-81.6
FT STORY,HKVZ,UNUSED,UNUSED,36.933334,-76.03333
FT THOMAS,HKXZ,UNUSED,UNUSED,39.066666,-84.4
FT TILDEN,HKYZ,UNUSED,UNUSED,40.55,-73.916664
FLUSHING,HKZY,UNUSED,UNUSED,40.78389,-73.7675
FT TOTTEN,HKZZ,UNUSED,UNUSED,40.783333,-73.76667
FT VALLEY,HLCC,UNUSED,UNUSED,32.566666,-83.88333
FT WADSWORTH,HLEC,UNUSED,UNUSED,40.583332,-74.05
FT WAINWRIGHT,HLED,UNUSED,UNUSED,64.833336,-147.58333
FT WAYNE,HLLL,UNUSED,UNUSED,41.130554,-85.12889
FT WORTH,HMAZ,UNUSED,UNUSED,32.75,-97.3
FT WORTH,HMBA,UNUSED,UNUSED,32.75,-97.333336
FT WORTH,HMBP,UNUSED,UNUSED,32.788887,-97.36389
FUJAIRAH,HMGB,UNUSED,UNUSED,25.083334,56.3
FULTON,HMZW,UNUSED,UNUSED,38.833332,-91.95
ANTLERS,HNRN,UNUSED,UNUSED,34.234165,-95.61916
MATMATA,HNTK,UNUSED,UNUSED,33.733334,9.919167
GABES,HNTM,UNUSED,UNUSED,33.9,10.116667
GABES,HNTS,UNUSED,UNUSED,33.85,10.116667
GAFSA,HPBF,UNUSED,UNUSED,34.426388,8.828055
GAINESVILLE,HPKT,UNUSED,UNUSED,29.666666,-82.333336
GAINESVILLE,HPMW,UNUSED,UNUSED,34.3,-84.583336
GALVESTON,HQLH,UNUSED,UNUSED,29.3,-94.8
GALVESTON,HQLL,UNUSED,UNUSED,29.283333,-94.8
GARDEN CITY,HREQ,UNUSED,UNUSED,37.97167,-100.87222
GARDEN CITY,HRLU,UNUSED,UNUSED,40.7,-73.71667
GARDEN CITY,HRNV,UNUSED,UNUSED,40.7,-73.71667
GARLAND,HSKD,UNUSED,UNUSED,32.916668,-96.61667
GARY,HSUG,UNUSED,UNUSED,41.593334,-87.34639
GASTONIA,HSWP,UNUSED,UNUSED,35.233334,-81.2
GATE CITY,HSYA,UNUSED,UNUSED,36.6,-82.583336
GEN B MITCHELL,HTUV,UNUSED,UNUSED,42.95028,-87.897224
GENERAL MITCHELL,HTUX,UNUSED,UNUSED,42.946945,-87.89694
GENOVA,HUPR,UNUSED,UNUSED,44.416668,8.833333
SOUTHERN CALIFORN,HUUA,UNUSED,UNUSED,34.5975,-117.38306
GEORGETOWN,HVWA,UNUSED,UNUSED,38.69,-75.38583
GEORGETOWN,HVZP,UNUSED,UNUSED,33.383335,-79.3
GILA BEND AF AUX,HXCZ,UNUSED,UNUSED,32.8875,-112.72
GLASGOW,HYRF,UNUSED,UNUSED,37,-85.916664
JACKSONVILLE,JAAK,UNUSED,UNUSED,30.208334,-81.700554
GLENS FALLS,JADW,UNUSED,UNUSED,43.3,-73.666664
CHICAGO CGAS,JAFZ,UNUSED,UNUSED,42.090557,-87.82
WAYNE EXECUTIVE J,JBUU,UNUSED,UNUSED,35.460556,-77.965
GOODFELLOW AFB,JCGU,UNUSED,UNUSED,31.431667,-100.40389
DJERBA,JEAH,UNUSED,UNUSED,33.875557,10.777223
GOWEN FIELD,JEGW,UNUSED,UNUSED,43.566666,-116.23333
GRAND FORKS AFB,JFSD,UNUSED,UNUSED,47.961113,-97.40111
GRAND JUNCTION,JGGZ,UNUSED,UNUSED,39.06389,-108.55
GRAND RAPIDS,JGMH,UNUSED,UNUSED,43,-85.7
FAYETTEVILLE RGNL,JHPM,UNUSED,UNUSED,34.99111,-78.88028
GRANTS MILAN MUNI,JHVQ,UNUSED,UNUSED,35.16722,-107.90195
GRAVESEND,JJRP,UNUSED,UNUSED,51.45,0.38333333
GREAT FALLS,JKSB,UNUSED,UNUSED,47.516666,-111.3
GREAT FALLS INTL,JKSE,UNUSED,UNUSED,47.482777,-111.37055
GREAT LAKES,JKWE,UNUSED,UNUSED,42.3,-87.833336
GREAT LAKES NAVY,JKWF,UNUSED,UNUSED,42.3,-87.833336
GREAT LAKES,JKWG,UNUSED,UNUSED,42.3,-87.833336
GREAT LAKES TNG,JKWP,UNUSED,UNUSED,42.3,-87.833336
GENERAL DOWNING P,JLQN,UNUSED,UNUSED,40.664165,-89.69334
PITTSBURGH MONROE,JLSN,UNUSED,UNUSED,40.452778,-79.775
PITTSBURGH INTL,JLSS,UNUSED,UNUSED,40.49139,-80.23278
NEW CASTLE,JLWS,UNUSED,UNUSED,39.67861,-75.60667
GREEN BAY,JMCZ,UNUSED,UNUSED,44.516666,-88.01667
GREENSBORO,JNHL,UNUSED,UNUSED,32.683334,-87.566666
GREENSBORO,JNHQ,UNUSED,UNUSED,36.05,-79.833336
GREENSBURG,JNPY,UNUSED,UNUSED,40.283333,-79.566666
GREENVILLE,JPJE,UNUSED,UNUSED,35.6,-77.38333
GREENVILLE,JPNJ,UNUSED,UNUSED,34.866665,-82.416664
GREENVILLE DOWNTO,JPNN,UNUSED,UNUSED,34.848057,-82.35
GREENVILLE SPARTA,JPPK,UNUSED,UNUSED,34.895557,-82.21889
GREENWOOD,JPXG,UNUSED,UNUSED,34.183334,-82.166664
GREER,JQCS,UNUSED,UNUSED,34.95,-82.21667
MANCHESTER,JQMA,UNUSED,UNUSED,42.932777,-71.43584
GRIFFISS INTL,JREZ,UNUSED,UNUSED,43.23389,-75.406944
GROTON,JRZT,UNUSED,UNUSED,41.35,-72.07889
GROTON,JRZU,UNUSED,UNUSED,41.328335,-72.04667
GUAM PORT,JSSN,UNUSED,UNUSED,13.580556,144.92778
GULFPORT,JTUW,UNUSED,UNUSED,30.35,-89.13333
GULFPORT,JTUX,UNUSED,UNUSED,30.367777,-89.09333
GULFPORT BILOXI I,JTVE,UNUSED,UNUSED,30.407223,-89.07
GULFPORT      CBC,JTVG,UNUSED,UNUSED,30.35,-89.083336
GULFPORT,JTVH,UNUSED,UNUSED,30.35,-89.083336
MAXWELL GUNTER AF,JUBJ,UNUSED,UNUSED,33.97361,-86.086945
HADLOCK,JVZQ,UNUSED,UNUSED,48.031944,-122.75694
HAIFA,JWJY,UNUSED,UNUSED,32.8,35.033333
HAKATA,JWTD,UNUSED,UNUSED,33.6,130.4
HALIFAX,JXKM,UNUSED,UNUSED,44.65,-63.583332
HALL,JXPJ,UNUSED,UNUSED,34.208332,-87.629166
HAMBURG,JYPN,UNUSED,UNUSED,53.533333,9.95
HAMILTON,JYVJ,UNUSED,UNUSED,34.133335,-87.98333
HAMILTON,JZQS,UNUSED,UNUSED,39.416668,-84.6
MCCHORD,JZSU,UNUSED,UNUSED,47.05,-119.666664
HAMMOND,KAFF,UNUSED,UNUSED,30.516666,-90.416664
SYRACUSE HANCOCK,KBHT,UNUSED,UNUSED,43.11111,-76.10639
HARLINGEN,KDFD,UNUSED,UNUSED,26.2,-97.71667
KENNEDY INTRANATI,KEAQ,UNUSED,UNUSED,33.52639,-83.638054
HARRINGTON,KEFP,UNUSED,UNUSED,38.92361,-75.57806
HARRISBURG,KEMJ,UNUSED,UNUSED,40.266666,-76.833336
HARRISON,KERD,UNUSED,UNUSED,36.266666,-93.15
HARTFORD,KFDS,UNUSED,UNUSED,41.76361,-72.685555
HARTFORD,KFKV,UNUSED,UNUSED,43.316666,-88.36667
HATTIESBURG,KGLC,UNUSED,UNUSED,31.333334,-89.316666
HAWAII,KHFQ,UNUSED,UNUSED,21,-157
HAWTHORNE INDUSTR,KHSH,UNUSED,UNUSED,38.545,-118.6325
HAWTHORNE AAP,KHST,UNUSED,UNUSED,38.55,-118.63333
HAYS,KJER,UNUSED,UNUSED,38.879166,-99.326385
HAYWARD,KJGR,UNUSED,UNUSED,37.666668,-122.083336
HAYWARD EXECUTIVE,KJGW,UNUSED,UNUSED,37.65889,-122.121666
HECTOR INTL,KKGA,UNUSED,UNUSED,46.920555,-96.815834
HEMPSTEAD,KLKD,UNUSED,UNUSED,40.7,-73.61667
HENDERSON,KLSD,UNUSED,UNUSED,36.016666,-115
HENDERSON,KLUK,UNUSED,UNUSED,35.433334,-88.65
HENRY POST AAF,KLZU,UNUSED,UNUSED,34.649723,-98.40222
HIALEAH,KNJD,UNUSED,UNUSED,25.816668,-80.28333
JBPH-H HICKAM FLD,KNMD,UNUSED,UNUSED,21.31611,-157.92667
DMA DPO HICKAM,KNMK,UNUSED,UNUSED,21.3375,-157.95416
HILL AFB,KRSM,UNUSED,UNUSED,41.12389,-111.97305
HILL AFB,KRSQ,UNUSED,UNUSED,41.106388,-111.980835
HILLSBORO,KSRM,UNUSED,UNUSED,47.416668,-97.066666
HOBART,KUHK,UNUSED,UNUSED,41.532223,-87.255
HOLLOMAN AFB,KWRD,UNUSED,UNUSED,32.852222,-106.10917
ST PAUL DOWNTOWN,KXPD,UNUSED,UNUSED,44.934723,-93.06028
HOMESTEAD AFB,KYJL,UNUSED,UNUSED,25.488056,-80.38389
HONG KONG ABERDEE,KZPH,UNUSED,UNUSED,22.233334,114.13333
HONOLULU,KZTR,UNUSED,UNUSED,21.316668,-157.95
HONOLULU INTL,KZTV,UNUSED,UNUSED,21.31611,-157.92667
HONOLULU,KZTZ,UNUSED,UNUSED,21.333334,-157.95
HOOD AAF,KZVP,UNUSED,UNUSED,31.13861,-97.71445
HOUSTON,LCMM,UNUSED,UNUSED,29.75,-95.36667
HOUSTON,LCMT,UNUSED,UNUSED,29.75,-95.416664
TERRE HAUTE INTL,LDXF,UNUSED,UNUSED,39.45139,-87.3075
HUMBOLDT,LDXZ,UNUSED,UNUSED,35.8,-88.88333
LEMOORE,LEAS,UNUSED,UNUSED,36.2625,-119.89
HUNTER,LEKF,UNUSED,UNUSED,32.009724,-81.14611
HUNTER AAF,LEXG,UNUSED,UNUSED,32.01,-81.14611
FT HUNTER LIGGETT,LEXN,UNUSED,UNUSED,36,-121.23333
HUNTINGTON,LFMS,UNUSED,UNUSED,38.416668,-82.416664
HUNTSVILLE,LFSF,UNUSED,UNUSED,34.7,-86.583336
HUNTSVILLE INTL C,LFSU,UNUSED,UNUSED,34.637222,-86.775
HURLEY,LFWC,UNUSED,UNUSED,46.45,-90.2
HURON,LGAA,UNUSED,UNUSED,44.351665,-98.7175
HUTCHINSON,LGJZ,UNUSED,UNUSED,38.060833,-97.92944
HYANNIS,LGSL,UNUSED,UNUSED,41.65,-70.26667
JOHN F KENNEDY IN,LHNZ,UNUSED,UNUSED,40.63972,-73.77889
INDEPENDENCE,LKCM,UNUSED,UNUSED,37.224167,-95.70805
INDEPENDENCE,LKEV,UNUSED,UNUSED,39.066666,-94.45
FT INDIANTOWN GAP,LKLW,UNUSED,UNUSED,40.433334,-76.583336
INDIAN ISLAND,LKPE,UNUSED,UNUSED,48.075,-122.75
INDIAN ISLAND ORD,LKPF,UNUSED,UNUSED,48.083332,-122.7
CREECH AFB,LKTC,UNUSED,UNUSED,36.587223,-115.67333
INDIANAPOLIS INTL,LLFN,UNUSED,UNUSED,39.717224,-86.29472
INDIANAPOLIS,LLFQ,UNUSED,UNUSED,39.768333,-86.15806
FT INDIANTOWN GAP,LLLB,UNUSED,UNUSED,40.366665,-76.63333
INGLESIDE,LLTY,UNUSED,UNUSED,27.85,-97.23333
INGLESIDE,LLXC,UNUSED,UNUSED,27.869167,-97.20194
INKSTER,LMDV,UNUSED,UNUSED,42.31889,-83.2675
IOWA AR AMMO PLT,LNLM,UNUSED,UNUSED,42.533333,-93.26667
LONG BEACH,LPAS,UNUSED,UNUSED,33.83,-118.086945
IRVINE,LPNH,UNUSED,UNUSED,33.67,-117.82333
IZMIR,LRNC,UNUSED,UNUSED,38.42389,27.129723
JACKSON,LRUD,UNUSED,UNUSED,33.3,-83.96667
JACKSON EVERS INT,LRXQ,UNUSED,UNUSED,32.31111,-90.075836
JACKSON,LRXY,UNUSED,UNUSED,32.333332,-90.183334
JACKSON,LSAU,UNUSED,UNUSED,35.616665,-88.833336
JACKSON BARRACKS,LSBC,UNUSED,UNUSED,29.95,-90
JACKSONVILLE,LSEK,UNUSED,UNUSED,30.333334,-81.666664
JACKSONVILLE,LSFY,UNUSED,UNUSED,30.35,-81.666664
JACKSONVILLE INTL,LSGA,UNUSED,UNUSED,30.494167,-81.687775
JACKSONVILLE,LSGB,UNUSED,UNUSED,30.233334,-81.683334
JACKSONVILLE NAS,LSGE,UNUSED,UNUSED,30.233889,-81.675
JACKSONVILLE,LSGG,UNUSED,UNUSED,30.5,-81.683334
JACKSONVILLE,LSGM,UNUSED,UNUSED,30.333334,-81.666664
JACKSONVILLE JCT,LSLG,UNUSED,UNUSED,30.35,-81.23333
JASPER,LTRC,UNUSED,UNUSED,33.783333,-87.25
JEFFERSON,LTUJ,UNUSED,UNUSED,42.015278,-94.37722
JEFFERSON BRK,LTUY,UNUSED,UNUSED,38.666668,-90.25
JEFFERSON BARRACK,LTVJ,UNUSED,UNUSED,38.508057,-90.281944
JEFFERSON,LTVK,UNUSED,UNUSED,36.43111,-81.47305
JEFFERSON CITY,LTWH,UNUSED,UNUSED,38.55,-92.166664
JACK BROOKS RGNL,LTYB,UNUSED,UNUSED,29.950834,-94.020836
JEFFERSONVILLE,LUCN,UNUSED,UNUSED,38.2775,-85.73722
JERSEY CITY,LUNH,UNUSED,UNUSED,40.733334,-74.066666
JEDDAH,LUTP,UNUSED,UNUSED,21.5,39.2
JOE FOSS FLD,LUXC,UNUSED,UNUSED,43.581944,-96.74194
CHARLESTON EXECUT,LVDB,UNUSED,UNUSED,32.70111,-80.003334
JOHNSON CITY,LVGY,UNUSED,UNUSED,36.333332,-82.38333
JOHNSTON,LVMC,UNUSED,UNUSED,41.673054,-93.6975
JOHNSTOWN,LVQT,UNUSED,UNUSED,40.333332,-78.916664
JOHN MURTHA JOHNS,LVQX,UNUSED,UNUSED,40.315556,-78.834724
WARMINSTER NAWC,LVSH,UNUSED,UNUSED,40.199165,-75.06611
JOLIET,LVTN,UNUSED,UNUSED,41.783333,-87.75
JONESBORO,LVXY,UNUSED,UNUSED,35.816666,-90.7
JOPLIN,LWAT,UNUSED,UNUSED,37.066666,-94.51667
JUBAIL PORT,LWEV,UNUSED,UNUSED,27,49.666668
JUNCTION CITY,LWLZ,UNUSED,UNUSED,44.583332,-89.76667
K I SAWYER AFB,LWRC,UNUSED,UNUSED,46.35361,-87.39555
KADENA AB,LXEZ,UNUSED,UNUSED,26.355556,127.76778
KAENA POINT,LXHY,UNUSED,UNUSED,21.575,-158.29167
KANDLA,LYAP,UNUSED,UNUSED,23.016666,70.21667
KANEOHE BAY MCAF,LYAX,UNUSED,UNUSED,21.450556,-157.76805
KANEOHE,LYBC,UNUSED,UNUSED,21.45,-157.76666
KANEOHE MCAS,LYBD,UNUSED,UNUSED,21.483334,-157.76666
YEAGER,LYBH,UNUSED,UNUSED,38.373055,-81.593056
KANSAS CITY,LYLC,UNUSED,UNUSED,39.114166,-94.62722
KANSAS CITY,LYNH,UNUSED,UNUSED,39.033333,-94.71667
KANSAS CITY,LYNK,UNUSED,UNUSED,39.279446,-94.59111
KANSAS CITY INTL,LYNM,UNUSED,UNUSED,39.2975,-94.71389
KANSAS CTY REC CT,LYNS,UNUSED,UNUSED,39.083332,-94.60139
KAOHSIUNG TSOYING,LYRV,UNUSED,UNUSED,22.6,120.36667
KAPALAMA,LYRW,UNUSED,UNUSED,21.35,-157.86667
KARACHI,LYTM,UNUSED,UNUSED,24.783333,66.98333
KEARNY,MAAU,UNUSED,UNUSED,40.766666,-74.15
KEEDYSVILLE,MADG,UNUSED,UNUSED,39.2,-76.75
KEENE,MAFU,UNUSED,UNUSED,42.916668,-72.28333
KEESLER AFB,MAHG,UNUSED,UNUSED,30.410555,-88.924446
KELIBIA,MBJJ,UNUSED,UNUSED,36.833332,11.1
KELLOG,MBLS,UNUSED,UNUSED,44.3,-91.98333
W K KELLOGG,MBMV,UNUSED,UNUSED,42.30639,-85.25
JBSA KELLY AFB,MBPB,UNUSED,UNUSED,29.384167,-98.58111
KELLY CORNERS,MBPD,UNUSED,UNUSED,42.181946,-74.6
KENOSHA,MCYS,UNUSED,UNUSED,42.583332,-87.833336
KENT,MDDS,UNUSED,UNUSED,47.366665,-122.25
KEY FLD,MDVL,UNUSED,UNUSED,32.3325,-88.751945
KEY WEST NAVY,MDWT,UNUSED,UNUSED,24.569445,-81.734726
KEY WEST NAS,MDWY,UNUSED,UNUSED,24.575834,-81.68889
KEY WEST,MDXB,UNUSED,UNUSED,24.552778,-81.8
KEYPORT NTS,MDYA,UNUSED,UNUSED,47.8,-122.6
WHIDBEY IS     SB,MDYH,UNUSED,UNUSED,48.333332,-122.65
MILLINGTON RGNL,MEAN,UNUSED,UNUSED,35.356667,-89.87055
GIMHAE INTL,MEPJ,UNUSED,UNUSED,35.180557,128.93805
KINGS BAY,MFRN,UNUSED,UNUSED,30.833334,-81.53333
KINGS MILLS,MFSZ,UNUSED,UNUSED,39.3,-84.23333
KINGS MILL ORD PL,MFTE,UNUSED,UNUSED,39.3,-84.23333
KLAMATH FALLS,MFWM,UNUSED,UNUSED,42.156113,-121.73333
KINGWOOD,MGMD,UNUSED,UNUSED,39.45,-79.71667
KIRTLAND AFB,MHMV,UNUSED,UNUSED,35.04028,-106.60917
MILLINGTON,MJAT,UNUSED,UNUSED,35.339443,-89.84611
KISSIMMEE GATEWAY,MJDH,UNUSED,UNUSED,28.289722,-81.437225
KLAMATH FALLS,MJNV,UNUSED,UNUSED,42.2,-121.78333
KNOXVILLE,MJYV,UNUSED,UNUSED,35.966667,-83.95
KOBE,MKAG,UNUSED,UNUSED,34.666668,135.2
KOPER,MLDL,UNUSED,UNUSED,45.55,13.733334
KULIS,MLRV,UNUSED,UNUSED,61.166668,-149.98334
KUNIA,MLVK,UNUSED,UNUSED,21.466667,-158.06667
KUNSAN,MLWY,UNUSED,UNUSED,35.983334,126.71667
KWANGYANG,MMGH,UNUSED,UNUSED,34.894444,127.64667
LA CROSSE,MMQR,UNUSED,UNUSED,43.816666,-91.25
LA GRANDE,MMUL,UNUSED,UNUSED,45.333332,-118.11667
LA PORTE,MNWA,UNUSED,UNUSED,29.633333,-95.05
LA TUNA,MPBP,UNUSED,UNUSED,31.980833,-106.59
MONTGOMERY,MPCP,UNUSED,UNUSED,32.354168,-86.34805
JBSA LACKLAND AFB,MPLS,UNUSED,UNUSED,29.4,-98.6
LAFAYETTE,MQEJ,UNUSED,UNUSED,40.416668,-86.875
LAFAYETTE,MQFA,UNUSED,UNUSED,30.183332,-92
LAJES,MQNA,UNUSED,UNUSED,38.761944,-27.090834
LAKE CHARLES,MQST,UNUSED,UNUSED,30.133333,-93.2
LAKE CITY,MQUK,UNUSED,UNUSED,30.2,-82.61667
LAKE CTY AMMO PLT,MQUZ,UNUSED,UNUSED,39.1,-94.21667
LAKE MEAD BASE,MRKT,UNUSED,UNUSED,36.25,-115.03333
LAKEHURST,MSBK,UNUSED,UNUSED,40.016666,-74.316666
LAKELAND,MSDK,UNUSED,UNUSED,28.033333,-81.95
LAKENHEATH,MSET,UNUSED,UNUSED,52.409443,0.5611111
LAMBERT ST LOUIS,MSQB,UNUSED,UNUSED,38.74861,-90.37
LANCASTER,MTET,UNUSED,UNUSED,40.1225,-76.29444
LANCASTER,MTEU,UNUSED,UNUSED,40.033333,-76.316666
JB LANGLEY-EUSTIS,MUHJ,UNUSED,UNUSED,37.08278,-76.36056
LANSING,MUUU,UNUSED,UNUSED,42.75,-84.583336
LARAMIE,MVHZ,UNUSED,UNUSED,41.333332,-105.63333
LAREDO,MVKR,UNUSED,UNUSED,27.516666,-99.5
LAS VEGAS,MWRJ,UNUSED,UNUSED,36.166668,-115.166664
LATHAM,MWWC,UNUSED,UNUSED,42.733334,-73.8
LATHROP,MWXP,UNUSED,UNUSED,37.816666,-121.26667
LAUGHLIN AFB,MXDP,UNUSED,UNUSED,29.359444,-100.77805
LAURENCE G HANSCO,MXRD,UNUSED,UNUSED,42.47,-71.28889
LAWRENCE,MYKJ,UNUSED,UNUSED,38.97167,-95.235
LAWRENCE,MYMU,UNUSED,UNUSED,42.716667,-71.11667
LAWRENCE MUNI,MYMW,UNUSED,UNUSED,42.717224,-71.12334
LAWRENCEVILLE,MYTZ,UNUSED,UNUSED,40.283333,-74.73333
LAWTON,MYWX,UNUSED,UNUSED,37.221943,-94.63583
LAWSON AAF,MYXZ,UNUSED,UNUSED,32.331665,-84.98722
LE HAVRE,MZJK,UNUSED,UNUSED,49.466667,0.11666667
LEAVENWORTH,MZXD,UNUSED,UNUSED,39.31111,-94.922226
LIVORNO,NBDY,UNUSED,UNUSED,43.566666,10.3
LEHIGH VALLEY,NBHN,UNUSED,UNUSED,41.166668,-75.833336
LEHIGH VALLEY,NBHO,UNUSED,UNUSED,40.666668,-75.46667
LEHI,NBJC,UNUSED,UNUSED,40.383335,-111.88333
LEMOORE NAS,NCBW,UNUSED,UNUSED,36.333057,-119.952225
LETTERKENNY DEPOT,NDAM,UNUSED,UNUSED,39.983334,-77.65
LETTERKENNY DEPOT,NDAN,UNUSED,UNUSED,39.983334,-77.65
LEWES,NDNK,UNUSED,UNUSED,38.76389,-75.13639
NEW ORLEANS,NEAC,UNUSED,UNUSED,29.831667,-90.01833
LEWISTOWN,NEFW,UNUSED,UNUSED,40.95,-76.88333
LEXINGTON BLGR AD,NEKS,UNUSED,UNUSED,38.083332,-84.5
LEXINGTON,NELF,UNUSED,UNUSED,38.1,-84.5
LEXINGTON,NENL,UNUSED,UNUSED,42.466667,-71.23333
LEXINGTON,NEQR,UNUSED,UNUSED,39.183334,-93.86667
SIERRA VISTA MUNI,NEWR,UNUSED,UNUSED,31.588612,-110.344444
WRIGHT AAF MIDCOA,NEYU,UNUSED,UNUSED,31.888334,-81.56167
LINCOLN,NGCB,UNUSED,UNUSED,40.850834,-96.75916
LINCOLN,NGCS,UNUSED,UNUSED,40.816666,-96.683334
SAN DIEGO INTL,NGWV,UNUSED,UNUSED,32.733334,-117.18972
LITTLE CREEK AMPH,NJNF,UNUSED,UNUSED,36.916668,-76.166664
LITTLE CREEK,NJNK,UNUSED,UNUSED,36.916668,-76.175
LITTLE ROCK AFB,NKAK,UNUSED,UNUSED,34.918335,-92.14306
LITTLE ROCK,NKBV,UNUSED,UNUSED,34.683334,-92.25
LIVERPOOL,NLFL,UNUSED,UNUSED,53.416668,-3
RICKENBACKER INTL,NLZG,UNUSED,UNUSED,39.81389,-82.92778
RICKENBACKER  ANG,NLZL,UNUSED,UNUSED,39.814167,-82.93222
GENERAL EDWARD LA,NNGX,UNUSED,UNUSED,42.363056,-71.006386
LOGAN,NNLX,UNUSED,UNUSED,41.783333,-111.85
LOME,NNWH,UNUSED,UNUSED,6.1666665,1.25
LONE STAR AMMO PL,NPMM,UNUSED,UNUSED,33.418056,-94.41805
LONG BEACH,NPTG,UNUSED,UNUSED,33.766666,-118.2
LONG BEACH,NPTM,UNUSED,UNUSED,33.81778,-118.151665
LONG BEACH CGAS,NPTN,UNUSED,UNUSED,33.935276,-118.401665
LONG BEACH NSC,NPTR,UNUSED,UNUSED,33.75,-118.2
LONG BEACH,NPTU,UNUSED,UNUSED,33.766666,-118.183334
LONG BEACH    NSY,NPTW,UNUSED,UNUSED,33.766666,-118.183334
LONG ISLAND,NPVL,UNUSED,UNUSED,41.166668,-73
LORING INTL,NRCH,UNUSED,UNUSED,46.950554,-67.88583
LOS ALAMITOS AAF,NRTX,UNUSED,UNUSED,33.79,-118.05139
LOS ANGELES Z12,NRZE,UNUSED,UNUSED,34.22111,-118.47639
LOS ANGELES,NSAB,UNUSED,UNUSED,34.05,-118.28333
LOS ANGELES INTL,NSAG,UNUSED,UNUSED,33.9425,-118.40806
LOS ANGELES,NSAN,UNUSED,UNUSED,33.716667,-118.26667
LOUISVILLE,NSQG,UNUSED,UNUSED,38.183334,-84.73333
LOUISVILLE,NSQM,UNUSED,UNUSED,38.266666,-85.78333
LOUISVILLE,NSQN,UNUSED,UNUSED,38.266666,-85.78333
LOVELL FLD,NTEA,UNUSED,UNUSED,35.03528,-85.20361
LOWRY,NTNB,UNUSED,UNUSED,39.716667,-104.9
LUALUALEI NAVMAG,NTUC,UNUSED,UNUSED,21.416666,-158.16667
LUALUALEI NMD,NTUF,UNUSED,UNUSED,21.416666,-158.16667
LUALUALEI WEST LO,NTUH,UNUSED,UNUSED,21.366667,-157.96666
LUBBOCK,NTWF,UNUSED,UNUSED,33.583332,-101.85
LUBBOCK PRESTON S,NTWM,UNUSED,UNUSED,33.663612,-101.82056
LUKE AFB,NUEX,UNUSED,UNUSED,33.535,-112.38306
LYNCHBURG,NVED,UNUSED,UNUSED,37.416668,-79.166664
LYON,NVUS,UNUSED,UNUSED,34.216667,-90.53472
MACDILL AFB,NVZR,UNUSED,UNUSED,27.849445,-82.52111
MADANIYIN,NWXN,UNUSED,UNUSED,33.35,10.443611
MADIGAN GENERAL,NXBY,UNUSED,UNUSED,47.233334,-122.433334
MADILL,NXCC,UNUSED,UNUSED,34.09722,-96.780556
MADISON,NXHE,UNUSED,UNUSED,43.083332,-89.36667
MAJORS,NYJY,UNUSED,UNUSED,33.06778,-96.06528
JBPH-H MAKALAPA,NYNF,UNUSED,UNUSED,21.333334,-157.95
MALMSTROM AFB HEL,NZAS,UNUSED,UNUSED,47.504723,-111.187225
FWD BASE,OPA1,UNUSED,UNUSED,34.283333,9.6
FWD BASE 2ND,OPA2,UNUSED,UNUSED,34.083332,9.433333
PATUXENT RIVER,PABH,UNUSED,UNUSED,38.275276,-76.44778
MANCHESTER,PADV,UNUSED,UNUSED,42.966667,-71.46667
MANDAN,PAJP,UNUSED,UNUSED,46.816666,-100.9
MANHATTAN,PASP,UNUSED,UNUSED,39.183334,-96.57139
MANILA,PAXM,UNUSED,UNUSED,14.583333,120.96667
MANITOWOC,PBDH,UNUSED,UNUSED,44.083332,-87.65
MANSFIELD,PBXH,UNUSED,UNUSED,40.783333,-82.53333
MANSFIELD LAHM RG,PBXP,UNUSED,UNUSED,40.82139,-82.51667
MANZANILLO,PCFC,UNUSED,UNUSED,19.033333,-104.316666
MANZANILLO,PCFG,UNUSED,UNUSED,9.363334,-79.88361
MARCH ARB,PCZP,UNUSED,UNUSED,33.880833,-117.259445
MARCH,PCZT,UNUSED,UNUSED,33.9,-117.25
MARE ISLAND,PDZE,UNUSED,UNUSED,38.1,-122.26667
MARE ISLAND   NSY,PDZF,UNUSED,UNUSED,38.083332,-122.23333
PEARL HARBOR,PEBG,UNUSED,UNUSED,21.352222,-157.93666
PENDLETON,PEBH,UNUSED,UNUSED,33.316944,-117.38361
MARIETTA,PEQA,UNUSED,UNUSED,33.916668,-84.51667
MARIETTA,PEQE,UNUSED,UNUSED,33.95,-84.566666
MARIETTA      NAS,PEQF,UNUSED,UNUSED,33.9,-84.51667
MARION,PFKS,UNUSED,UNUSED,37.733334,-88.933334
MARION,PFTE,UNUSED,UNUSED,40.616665,-83.11667
PHILADELPHIA,PHAG,UNUSED,UNUSED,39.9,-75.23333
MARSHALL AAF,PHMS,UNUSED,UNUSED,39.052776,-96.76444
MARTIN,PJFS,UNUSED,UNUSED,33.98611,-86.06389
MARTIN STATE,PJMS,UNUSED,UNUSED,39.325554,-76.41389
MARTINSBURG,PJVS,UNUSED,UNUSED,39.45,-77.96667
EASTERN WV RGNL S,PJVY,UNUSED,UNUSED,39.401943,-77.984726
MARYVILLE,PKRY,UNUSED,UNUSED,40.35,-94.86667
MASAN,PKVP,UNUSED,UNUSED,35.183334,128.56667
SACRAMENTO MATHER,PLXL,UNUSED,UNUSED,38.55528,-121.297226
MATTYDALE,PNCZ,UNUSED,UNUSED,43.1,-76.15
MAXWELL AFB,PNQS,UNUSED,UNUSED,32.383057,-86.36584
PORT HUENEME,PPBC,UNUSED,UNUSED,34.167778,-119.195274
MAYPORT NS,PPSB,UNUSED,UNUSED,30.391388,-81.424446
MAYPORT,PPSC,UNUSED,UNUSED,30.4,-81.433334
MAYPORT NAVAL ST,PPSH,UNUSED,UNUSED,30.4,-81.433334
MCALESTER     AAP,PQEK,UNUSED,UNUSED,34.933334,-95.75
MCALESTER,PQEL,UNUSED,UNUSED,34.933334,-95.75
MCALESTER AAP,PQEM,UNUSED,UNUSED,34.933334,-95.75
MC CARRAN INTL,PQSY,UNUSED,UNUSED,36.08,-115.15222
JBLM MCCHORD FLD,PQWY,UNUSED,UNUSED,47.13778,-122.47639
ORLANDO,PRAY,UNUSED,UNUSED,28.579166,-81.3225
MC CLELLAN AFLD,PRJY,UNUSED,UNUSED,38.667778,-121.40056
COBB CO MC COLLUM,PRNG,UNUSED,UNUSED,34.013054,-84.59695
MC CONNELL AFB,PRQE,UNUSED,UNUSED,37.623055,-97.2675
MCCONNELL     ANG,PRQG,UNUSED,UNUSED,37.623055,-97.26722
MCCONNELSVILLE,PRXK,UNUSED,UNUSED,39.635834,-81.85
MC CLELLAN AFB,PRYV,UNUSED,UNUSED,38.65,-121.38333
ORLANDO INTL,PSAX,UNUSED,UNUSED,28.429445,-81.30889
SPARTA FORT MC CO,PSBE,UNUSED,UNUSED,43.958332,-90.73778
MC ENTIRE JNGB,PSTE,UNUSED,UNUSED,33.920834,-80.80111
MC GHEE TYSON,PSXE,UNUSED,UNUSED,35.81111,-83.99416
MC GUIRE FLD,PTFL,UNUSED,UNUSED,40.015556,-74.59167
MCGUIRE AFB,PTFM,UNUSED,UNUSED,40.015556,-74.59055
MCGUIRE,PTFY,UNUSED,UNUSED,40.016666,-74.6
OUED SIAH,PUBW,UNUSED,UNUSED,32.68833,9.879444
MCKEESPORT,PUCT,UNUSED,UNUSED,40.343887,-79.83222
MECHANICSBURG,PVKT,UNUSED,UNUSED,40.216667,-77.01667
MECHANICSBURG,PVSB,UNUSED,UNUSED,40.22278,-76.985275
MECHANICSBURG,PVSD,UNUSED,UNUSED,40.216667,-77.01667
MECHANICSBURG ICP,PVSE,UNUSED,UNUSED,40.216667,-77.01667
MEDINA,PWEL,UNUSED,UNUSED,29.80889,-99.24333
MELBOURNE,PWYL,UNUSED,UNUSED,28.083334,-80.6
HOT SPGS MEMORIAL,PYGY,UNUSED,UNUSED,34.5,-93.03333
MEMPHIS DEPOT,PYJT,UNUSED,UNUSED,35.116665,-90.066666
MEMPHIS       ANG,PYJX,UNUSED,UNUSED,35.05,-89.96667
MEMPHIS,PYKB,UNUSED,UNUSED,35.133335,-90.05
MEMPHIS,PYKC,UNUSED,UNUSED,35.083332,-90
MEMPHIS,PYKE,UNUSED,UNUSED,35.116665,-90.083336
MEMPHIS,PYKG,UNUSED,UNUSED,35.131668,-89.976944
MEMPHIS INTL,PYKL,UNUSED,UNUSED,35.0425,-89.97667
MEMPHIS,PYKS,UNUSED,UNUSED,35.35,-89.86667
LITTLE RIVER,PYVR,UNUSED,UNUSED,39.261944,-123.75389
MERIDIAN,QALE,UNUSED,UNUSED,32.35,-88.7
MERIDIAN NAS,QALG,UNUSED,UNUSED,32.55361,-88.555275
MESQUITE,QBLU,UNUSED,UNUSED,32.75,-96.666664
COLUMBIA,QCDH,UNUSED,UNUSED,38.983055,-92.360275
MIAMI,QCEY,UNUSED,UNUSED,25.75,-80.25
MIAMI,QCFA,UNUSED,UNUSED,25.65,-80.183334
MIAMI INTL,QCFE,UNUSED,UNUSED,25.795279,-80.29
MIAMI,QCFF,UNUSED,UNUSED,25.783333,-80.183334
MICHAEL AAF,QCQQ,UNUSED,UNUSED,40.199444,-112.9375
MIDDLETOWN,QDVL,UNUSED,UNUSED,41.56222,-72.65111
MIDDLETOWN,QEDS,UNUSED,UNUSED,41.533333,-71.28333
MIDWAY,QEPR,UNUSED,UNUSED,30.011667,-83.07889
MILAN AMMO PLANT,QFND,UNUSED,UNUSED,35.933334,-88.78333
MILBANK,QFNM,UNUSED,UNUSED,45.218056,-96.61916
MILDENHALL,QFQE,UNUSED,UNUSED,52.361946,0.4863889
MILLINGTON,QGVL,UNUSED,UNUSED,35.35,-89.9
MILWAUKEE,QHLE,UNUSED,UNUSED,43.033333,-87.916664
MILWAUKEE M 02,QHMA,UNUSED,UNUSED,43.05,-87.933334
JEBEL ALI,QHPB,UNUSED,UNUSED,24.983334,55.05
MINA SAQR,QHPD,UNUSED,UNUSED,25.966667,56.05
MINA ZAYED,QHPF,UNUSED,UNUSED,24.516666,54.366665
MINNEAPOLIS ST PA,QJKL,UNUSED,UNUSED,44.881943,-93.221664
MINN ST PAUL,QJKS,UNUSED,UNUSED,44.95,-93.25
MINNEAPOLIS,QJNT,UNUSED,UNUSED,44.95,-93.25
MINOT AFB,QJVF,UNUSED,UNUSED,48.415833,-101.358055
MINOT,QJVZ,UNUSED,UNUSED,48.266666,-101.316666
MINOT INTL,QJWG,UNUSED,UNUSED,48.25778,-101.27805
MIRAMAR MCAS,QKJA,UNUSED,UNUSED,32.868332,-117.14167
MISSION,QKTA,UNUSED,UNUSED,39.02778,-94.655556
MOBERLY,QMDU,UNUSED,UNUSED,39.433334,-92.433334
MOBILE,QMFU,UNUSED,UNUSED,30.683332,-88.05
MOBILE,QMFZ,UNUSED,UNUSED,30.683332,-88.11667
MOFFETT FEDERAL A,QMSN,UNUSED,UNUSED,37.41611,-122.049164
MOKPO,QNPW,UNUSED,UNUSED,34.783333,126.38333
HABIB BOURGUIBA I,QNVA,UNUSED,UNUSED,35.75778,10.753889
MONROE,QPFW,UNUSED,UNUSED,33.783333,-83.71667
MONROE,QPMA,UNUSED,UNUSED,42.6,-89.65
MONTGOMERY,QQSN,UNUSED,UNUSED,32.35,-85.333336
MONTESSEUR,QRAW,UNUSED,UNUSED,31.493055,9.809722
MOODY AFB,QSEU,UNUSED,UNUSED,30.967777,-83.193054
MOREHEAD CITY,QTUP,UNUSED,UNUSED,34.65278,-76.675835
MOREHEAD CITY,QTUR,UNUSED,UNUSED,34.9,-76.88333
MORENO VALLEY,QTXL,UNUSED,UNUSED,33.91528,-117.111115
MORGANTOWN,QUEG,UNUSED,UNUSED,39.633335,-79.95
MORRISVILLE,QVNC,UNUSED,UNUSED,35.8,-78.833336
MOUNDSVILLE,QWZM,UNUSED,UNUSED,39.8,-80.71667
MT CLEMENS,QYDL,UNUSED,UNUSED,42.6,-82.88333
MOUNTAIN HOME AFB,QYZH,UNUSED,UNUSED,43.04361,-115.8725
MUKHOJIN NI,RBXH,UNUSED,UNUSED,37.533333,129.1
MURRAY,RCXQ,UNUSED,UNUSED,36.583332,-88.3
MUSCAT,RCYQ,UNUSED,UNUSED,23.616667,58.633335
MUSCAT,RCYT,UNUSED,UNUSED,23.616667,58.6
MUSKOGEE,RDKD,UNUSED,UNUSED,35.7,-95.36667
MYRTLE BEACH INTL,RDRD,UNUSED,UNUSED,33.67972,-78.92834
REMADA,REAG,UNUSED,UNUSED,32.30611,10.381945
NAGOYA,RELG,UNUSED,UNUSED,35.05,136.86667
NAHA,REPV,UNUSED,UNUSED,26.205278,127.67167
NAPLES,RGJW,UNUSED,UNUSED,40.833332,14.266666
NEW ORLEANS NAVSA,RGNP,UNUSED,UNUSED,29.95,-90.05
NASHVILLE,RHAS,UNUSED,UNUSED,36.167778,-86.78861
NASHVILLE,RHEL,UNUSED,UNUSED,36.166668,-86.8
NATICK LABORATORY,RHTC,UNUSED,UNUSED,42.283333,-71.35
NAVY YARD,RJHC,UNUSED,UNUSED,38.866665,-77.066666
NEDERLAND,RJVF,UNUSED,UNUSED,29.983334,-94
NELLIS AFB,RKMF,UNUSED,UNUSED,36.23611,-115.034164
NEW CUMBERLAND DP,RPCM,UNUSED,UNUSED,40.216667,-76.833336
NEW HAVEN,RPWN,UNUSED,UNUSED,41.308056,-72.92861
NEW HAVEN,RPWO,UNUSED,UNUSED,41.269444,-72.903336
NEW HAVEN MAP,RPYA,UNUSED,UNUSED,41.3,-72.916664
NEW LONDON,RQFA,UNUSED,UNUSED,41.355556,-72.1
NEW LONDON,RQFF,UNUSED,UNUSED,41.355556,-72.1
NEW LONDON,RQFK,UNUSED,UNUSED,41.355556,-72.1
NEW ORLEANS NAS,RQLH,UNUSED,UNUSED,29.991112,-90.25139
NEW ORLEANS,RQMA,UNUSED,UNUSED,29.966667,-90.11667
LOUIS ARMSTRONG N,RQMN,UNUSED,UNUSED,29.993334,-90.25916
NEW ORLEANS NAS J,RQNA,UNUSED,UNUSED,29.827223,-90.026665
NEW ORLEANS NAV S,RQNB,UNUSED,UNUSED,29.833334,-90.01667
NEW ORLEANS SHYD,RQNJ,UNUSED,UNUSED,29.95,-90.066666
NEW ORLEANS,RQNK,UNUSED,UNUSED,29.95,-90.01667
NEW ORLEANS   NSA,RQNM,UNUSED,UNUSED,30,-90.05
NEW RIVER MCAS,RQWP,UNUSED,UNUSED,34.708332,-77.43972
NEW RIVER,RQXF,UNUSED,UNUSED,37.133335,-80.59167
NEW YORK,RRHQ,UNUSED,UNUSED,40.583332,-73.88333
NEW YORK,RRHU,UNUSED,UNUSED,40.716667,-74.03333
NEW YORK,RRJJ,UNUSED,UNUSED,40.816666,-73.9
NEWARK LIBERTY IN,RRPQ,UNUSED,UNUSED,40.6925,-74.16861
PORT NEWARK,RRQL,UNUSED,UNUSED,40.716667,-74.183334
NEW YORK PORT EMB,RRRK,UNUSED,UNUSED,40.666668,-73.96667
NEWBURGH,RSDQ,UNUSED,UNUSED,41.5,-74
NEWPORT,RUAD,UNUSED,UNUSED,41.5,-71.333336
NEWPORT,RUAM,UNUSED,UNUSED,41.5,-71.333336
NEWPORT T2,RUAQ,UNUSED,UNUSED,41.5,-71.333336
NEWPORT NEWS,RULQ,UNUSED,UNUSED,37,-76.416664
NEWPORT NEWS,RULV,UNUSED,UNUSED,37,-76.4
NIAGARA FALLS,RVKC,UNUSED,UNUSED,43.1,-79.066666
NIAGARA FALLS INT,RVKQ,UNUSED,UNUSED,43.1075,-78.94583
NO CHARLESTON,RYSW,UNUSED,UNUSED,32.9,-80.03333
NO CHARLESTON,RYTJ,UNUSED,UNUSED,32.883335,-79.98333
NO HIGHLANDS,RZJQ,UNUSED,UNUSED,38.266666,-121.933334
NORTH ISLAND,RZMJ,UNUSED,UNUSED,32.7,-117.2
NORTH ISLAND NAS,RZMK,UNUSED,UNUSED,32.698612,-117.21333
NO LITTLE ROCK,RZPW,UNUSED,UNUSED,34.766666,-92.26667
NORTH ISLAND NAS,RZQH,UNUSED,UNUSED,32.699165,-117.21528
N PROVIDENCE,SAAX,UNUSED,UNUSED,41.833332,-71.416664
SAN DIEGO 02,SABZ,UNUSED,UNUSED,32.71528,-117.17194
SAN DIEGO ANG,SACB,UNUSED,UNUSED,32.869167,-117.14361
NO SMITHFIELD,SAEJ,UNUSED,UNUSED,41.733334,-71.433334
NORCO,SAXL,UNUSED,UNUSED,33.95,-117.55
NORFOLK GSA FAC,SBDD,UNUSED,UNUSED,36.85,-76.28333
NORFOLK       NSC,SBDG,UNUSED,UNUSED,36.933334,-76.28333
NORFOLK,SBDJ,UNUSED,UNUSED,36.833332,-76.3
NORFOLK NST,SBDP,UNUSED,UNUSED,36.933334,-76.28333
NORFOLK INTL,SBDQ,UNUSED,UNUSED,36.894722,-76.20111
NORFOLK NS,SBDW,UNUSED,UNUSED,36.93778,-76.28917
NORFOLK,SBDZ,UNUSED,UNUSED,36.85,-76.3
NORFOLK,SBEA,UNUSED,UNUSED,36.91,-76.3275
NORFOLK NAVY,SBEN,UNUSED,UNUSED,36.833332,-76.3
NORFOLK T2,SBEQ,UNUSED,UNUSED,36.933334,-76.28333
N TERRE HAUTE,SBKE,UNUSED,UNUSED,39.52778,-87.360275
NORRISTOWN,SBLE,UNUSED,UNUSED,40.116665,-75.35
N ISLAND,SBNB,UNUSED,UNUSED,32.699165,-117.21528
N ISLAND NAS,SBNP,UNUSED,UNUSED,32.7,-117.2
SAN BERNARDINO IN,SCEY,UNUSED,UNUSED,34.095276,-117.235
NORTON,SCTF,UNUSED,UNUSED,39.83389,-99.89111
TUNISIASEABASE,SEA1,UNUSED,UNUSED,34.283333,10.5
OAK HARBOR,SEDH,UNUSED,UNUSED,48.366665,-122.666664
OAK RIDGE,SEHB,UNUSED,UNUSED,36.033333,-84.2
OAKLAND,SERB,UNUSED,UNUSED,37.716667,-122.2
OAKLAND,SERH,UNUSED,UNUSED,37.833332,-122.25
OAKLAND,SERJ,UNUSED,UNUSED,37.726112,-122.2225
OAKLAND,SERS,UNUSED,UNUSED,37.816666,-122.333336
OAKLAND SEALAND T,SERU,UNUSED,UNUSED,37.816666,-122.333336
OAKLAND NAVY,SESW,UNUSED,UNUSED,37.75,-122.2
OAKLAND ARMY BASE,SETE,UNUSED,UNUSED,37.816666,-122.3
OCALA,SFHB,UNUSED,UNUSED,29.2,-82.15
OCEANA NAS,SFPH,UNUSED,UNUSED,36.822777,-76.031944
OCEANA,SFPM,UNUSED,UNUSED,36.833332,-76.03333
OFFUTT AFB,SGBP,UNUSED,UNUSED,41.119446,-95.90861
OGDEN,SGNV,UNUSED,UNUSED,41.233334,-111.98333
OGDEN HINCKLEY,SGPA,UNUSED,UNUSED,41.195557,-112.013054
OGDEN ORD PLANT,SGPN,UNUSED,UNUSED,41.15,-112
OGDEN,SGQM,UNUSED,UNUSED,41.233334,-111.98333
SHERMAN AAF,SHA5,UNUSED,UNUSED,39.368332,-94.91472
SHARPE AAF,SHAR,UNUSED,UNUSED,37.836666,-121.27333
OKLAHOMA CITY,SHCZ,UNUSED,UNUSED,35.416668,-97.38333
OKLAHOMA CITY 02,SHDD,UNUSED,UNUSED,35.466667,-97.51667
OKLAHOMA CITY,SHDT,UNUSED,UNUSED,35.466667,-97.53333
OKLAHOMA CITY,SHDV,UNUSED,UNUSED,35.404167,-97.37778
OKMULGEE,SHFM,UNUSED,UNUSED,35.6,-95.96667
OLATHE,SHMZ,UNUSED,UNUSED,38.88139,-94.818886
HARRISBURG INTL,SHYQ,UNUSED,UNUSED,40.193054,-76.7625
OMAHA,SJRF,UNUSED,UNUSED,41.25,-96
OMAHA,SJRM,UNUSED,UNUSED,41.25,-96
ONALASKA,SJZQ,UNUSED,UNUSED,43.883335,-91.21917
ONSLOW BAY,SKHU,UNUSED,UNUSED,34.483334,-77.23333
ONTARIO INTL,SKKA,UNUSED,UNUSED,34.05611,-117.60111
OPELIKA,SKNU,UNUSED,UNUSED,32.633335,-85.416664
ORANGE,SKXJ,UNUSED,UNUSED,41.933334,-72.683334
ORANGEBURG,SLFU,UNUSED,UNUSED,41.05,-73.95
ORLANDO,SLWA,UNUSED,UNUSED,28.516666,-81.36667
ORLANDO,SLWB,UNUSED,UNUSED,28.55,-81.35
OSAKA,SMXS,UNUSED,UNUSED,34.6475,135.4289
OSAN AB,SMYU,UNUSED,UNUSED,37.090557,127.029724
OSHKOSH,SNKA,UNUSED,UNUSED,44,-90.5
CAPE COD CGAS,SPBN,UNUSED,UNUSED,41.65917,-70.52278
PAINE,STDF,UNUSED,UNUSED,47.908333,-122.28139
PALEHUA,STQT,UNUSED,UNUSED,21.4,-158.1
PALERMO,STRL,UNUSED,UNUSED,38.175835,13.091111
PALERMO,STRM,UNUSED,UNUSED,38.12611,13.368889
PALM BEACH INTL,STXG,UNUSED,UNUSED,26.683056,-80.09556
PALM BEACH,STYW,UNUSED,UNUSED,26.7,-80.03333
PANAMA CITY,SVCN,UNUSED,UNUSED,8.95,-79.53333
PANAMA CITY,SVDZ,UNUSED,UNUSED,30.166666,-85.666664
PAPAGO,SVNY,UNUSED,UNUSED,33.435276,-112.01195
PARIS,SWBM,UNUSED,UNUSED,33.65,-95.55
PARKERSBURG,SWHZ,UNUSED,UNUSED,39.266666,-81.53333
PARMA,SWMT,UNUSED,UNUSED,41.25,-81.78333
PASADENA,SWUM,UNUSED,UNUSED,34.15,-118.166664
PASCAGOULA,SWYM,UNUSED,UNUSED,30.35,-88.53333
PASCO,SWZZ,UNUSED,UNUSED,46.25,-119.11667
PATRICK AFB,SXHT,UNUSED,UNUSED,28.235,-80.61
PATUXENT RIVER NA,SYCM,UNUSED,UNUSED,38.28639,-76.41
PEARL CITY,SYYT,UNUSED,UNUSED,21.4,-157.96666
PEARL HARBOR SHYD,SYZB,UNUSED,UNUSED,21.383333,-157.95
PEARL HARBOR  NST,SYZJ,UNUSED,UNUSED,21.366667,-158
JBPH-H PEARL HARB,SYZN,UNUSED,UNUSED,21.366667,-158
PEARL HARBOR  NSC,SYZP,UNUSED,UNUSED,21.316668,-158
PEARL HARBOR NAD,SYZZ,UNUSED,UNUSED,21.333334,-157.96666
PORTSMOUTH INTL A,SZDT,UNUSED,UNUSED,43.078056,-70.82333
CALVERTON EXECUTI,SZTN,UNUSED,UNUSED,40.915,-72.79195
PENSACOLA NAVY,TABN,UNUSED,UNUSED,30.423334,-87.21833
PENSACOLA,TAXT,UNUSED,UNUSED,30.416666,-87.2
PENSACOLA NAS CHE,TAXU,UNUSED,UNUSED,30.352777,-87.26806
PENSACOLA,TAXW,UNUSED,UNUSED,30.4,-87.21667
PENTAGON,TAYZ,UNUSED,UNUSED,38.866665,-77.05
PEORIA,TBBT,UNUSED,UNUSED,40.683334,-89.61667
PERRINE,TCEF,UNUSED,UNUSED,25.6,-80.35
PERRYSBURG,TCKF,UNUSED,UNUSED,41.55,-83.65
PETERBOROUGH,TDEE,UNUSED,UNUSED,42.883335,-71.95
PETERSBURG,TDHU,UNUSED,UNUSED,37.2,-77.4
CITY OF COLORADO,TDHV,UNUSED,UNUSED,38.805832,-104.700836
PETERSON AFB,TDKA,UNUSED,UNUSED,38.816666,-104.7
PETERSON,TDKF,UNUSED,UNUSED,42.918056,-95.34361
PETERSON,TDKP,UNUSED,UNUSED,42.916668,-95.35
PHILADELPHIA 04,TDWK,UNUSED,UNUSED,40,-75.166664
PHILADELPHIA,TDXA,UNUSED,UNUSED,39.933334,-75.166664
PHILADELPHIA INTL,TDXG,UNUSED,UNUSED,39.872223,-75.24084
PHILADELPHIA,TDXQ,UNUSED,UNUSED,40.016666,-75.083336
PHILADELPHIA DPSC,TDXT,UNUSED,UNUSED,39.899723,-75.23333
PHILADELPHIA NAV,TEBQ,UNUSED,UNUSED,39.916668,-75.083336
DMA DPO PHILADEL,TECV,UNUSED,UNUSED,40.0625,-75.92778
PHOENIX,TEWJ,UNUSED,UNUSED,33.5,-112.05
PICO RIVERA,TFHD,UNUSED,UNUSED,33.833332,-118.083336
PIERRE RGNL,TFMT,UNUSED,UNUSED,44.38278,-100.28611
PINE BLUFF,TGAQ,UNUSED,UNUSED,34.183334,-92
PINE BLUFF ARSNL,TGAW,UNUSED,UNUSED,34.316666,-92.083336
PARAIEVS,TGWS,UNUSED,UNUSED,37.933334,23.633333
PITTSBURGH,THGC,UNUSED,UNUSED,40.283333,-80.01667
PITTSFIELD,THJC,UNUSED,UNUSED,42.45,-73.25
PLAINVILLE,THSW,UNUSED,UNUSED,41.674446,-72.85861
PLAQUEMINE,THVB,UNUSED,UNUSED,30.283333,-91.23333
PLATTSBURGH INTL,THWA,UNUSED,UNUSED,44.650833,-73.468056
PLATTSBURGH,THXR,UNUSED,UNUSED,44.7,-73.45
POCAHONTAS,TJYZ,UNUSED,UNUSED,42.735554,-94.66889
POHANG,TKDW,UNUSED,UNUSED,36.05,129.36667
POINT LOMA,TKVP,UNUSED,UNUSED,32.716667,-117.25
POINT MUGU NAS,TKXA,UNUSED,UNUSED,34.120277,-119.120834
POINT MUGU,TKXB,UNUSED,UNUSED,34.116665,-119.11667
POINT PLEASANT,TLAC,UNUSED,UNUSED,38.833332,-82.13333
POMONA,TLSH,UNUSED,UNUSED,34.05,-117.75
POPE AAF,TMKH,UNUSED,UNUSED,35.170834,-79.01444
POPE,TMKL,UNUSED,UNUSED,35.166668,-79.01667
POPLAR BLUFF,TMYB,UNUSED,UNUSED,36.266666,-90.416664
PORT CLINTON,TNQV,UNUSED,UNUSED,41.5,-82.95
PORT EVERGLADES,TNVX,UNUSED,UNUSED,26.1,-80.11667
PORT HUENEME,TNZP,UNUSED,UNUSED,34.216667,-119.083336
PORT HUENEME  CBC,TNZQ,UNUSED,UNUSED,34.15,-119.21667
PORT HUENEME,TNZV,UNUSED,UNUSED,34.15,-119.21667
PORT HUENEME NCBC,TNZY,UNUSED,UNUSED,34.15,-119.2
NEFTA,TPAL,UNUSED,UNUSED,33.939724,8.101111
TOPEKA,TPAR,UNUSED,UNUSED,39.04028,-95.67667
PORT SAID,TPPR,UNUSED,UNUSED,31.25,32.3
PORT KELANG,TPRW,UNUSED,UNUSED,3.0166667,101.35
PORT TAMPA,TPRZ,UNUSED,UNUSED,27.85,-82.5
PORT TOWNSEND,TPSL,UNUSED,UNUSED,48.116665,-122.75
PORTLAND,TQGJ,UNUSED,UNUSED,43.666668,-70.25
PORTLAND ANG,TQJF,UNUSED,UNUSED,45.5,-122.61667
PORTLAND,TQJG,UNUSED,UNUSED,45.583332,-122.6
PORTLAND,TQJX,UNUSED,UNUSED,45.5,-122.61667
PORTLAND INTL,TQKD,UNUSED,UNUSED,45.58861,-122.59695
PORTLAND,TQKG,UNUSED,UNUSED,45.583332,-122.6
PORTO FARINA,TQPB,UNUSED,UNUSED,37.166668,10.183333
PORTSMOUTH,TQQL,UNUSED,UNUSED,43.076946,-70.71333
PORTSMOUTH,TQRU,UNUSED,UNUSED,43.083332,-70.75
PORTSMOUTH NAVY,TQTV,UNUSED,UNUSED,36.831665,-76.30167
PORTSMOUTH,TQUD,UNUSED,UNUSED,36.783333,-76.333336
PORTSMOUTH,TQUH,UNUSED,UNUSED,36.816666,-76.3
PORTSMOUTH,TQUK,UNUSED,UNUSED,36.816666,-76.3
TRIPLER,TRAH,UNUSED,UNUSED,21.366667,-157.88333
PRAIA DE VITORIA,TRZP,UNUSED,UNUSED,38.716667,-27.05
PRAIRIE DU CHIEN,TSDG,UNUSED,UNUSED,43.050835,-91.13556
PRATTVILLE,TSKU,UNUSED,UNUSED,32.45,-86.46667
PRESIDIO OF SFRAN,TSRD,UNUSED,UNUSED,37.8,-122.451385
PROVIDENCE,TTWX,UNUSED,UNUSED,41.833332,-71.416664
PROVIDENCE,TTWZ,UNUSED,UNUSED,41.816666,-71.4
PUGET SOUND,TUJL,UNUSED,UNUSED,47.15,-122.48333
PUERTO RICO OPARE,TUMM,UNUSED,UNUSED,18.5,-65
PUSAN MILITARY TE,TVJD,UNUSED,UNUSED,35.083332,129.08223
MINA QABOOS,TVXA,UNUSED,UNUSED,23.616667,58.55
QUANTICO BASE  CA,TVYC,UNUSED,UNUSED,38.5,-77.3
QUANTICO,TVYX,UNUSED,UNUSED,38.5,-77.3
QUANTICO,TVYY,UNUSED,UNUSED,38.5,-77.3
TWENTYNINE PALMS,TWAC,UNUSED,UNUSED,34.296112,-116.162224
QUINCY,TWEG,UNUSED,UNUSED,42.25,-71.01667
QUINCY,TWEH,UNUSED,UNUSED,42.25,-71.01667
QUONSET STATE,TWLR,UNUSED,UNUSED,41.59722,-71.412224
RADFORD ARSENAL,TWUT,UNUSED,UNUSED,37.1,-80.65
RAEFORD,TWVH,UNUSED,UNUSED,34.983334,-79.23333
RAINELLE,TWWH,UNUSED,UNUSED,37.916668,-80.816666
RALEIGH,TWZR,UNUSED,UNUSED,35.75,-78.65
RALEIGH DURHAM IN,TXCE,UNUSED,UNUSED,35.877777,-78.7875
RAMSTEIN AB,TYFR,UNUSED,UNUSED,49.43611,7.606389
JBSA RANDOLPH AFB,TYMX,UNUSED,UNUSED,29.528889,-98.27805
RAPID CITY,TZHY,UNUSED,UNUSED,44.1,-103.23333
RAS AL MISHAB,TZL4,UNUSED,UNUSED,28.1,48.633335
RAVENNA AMMO PLNT,TZRL,UNUSED,UNUSED,41.55,-81.083336
SALALAH MINA RAYS,TZYR,UNUSED,UNUSED,16.933332,54
READING,UABS,UNUSED,UNUSED,40.333332,-75.916664
READING RGNL CARL,UABY,UNUSED,UNUSED,40.378613,-75.96528
RED BANK,UAKE,UNUSED,UNUSED,40.083332,-74.35
RED RIVER DEPOT,UAUU,UNUSED,UNUSED,33.416668,-94.26667
RED RIVER DEPOT,UAUW,UNUSED,UNUSED,33.416668,-94.26667
REDSTONE AAF,UBHP,UNUSED,UNUSED,34.67861,-86.68472
REDSTONE ARSENAL,UBHS,UNUSED,UNUSED,34.616665,-86.666664
REESE AIRPARK,UBNS,UNUSED,UNUSED,33.59028,-102.03667
REISTERSTOWN,UCMH,UNUSED,UNUSED,39.469444,-76.82972
RENO,UCTE,UNUSED,UNUSED,39.533333,-119.8
RENO TAHOE INTL,UCTL,UNUSED,UNUSED,39.49917,-119.76806
KANSAS CITY SOUTH,UEBL,UNUSED,UNUSED,38.850834,-94.558334
RICHARDS GEBAUR,UEBP,UNUSED,UNUSED,38.833332,-94.55
RICHMOND,UEND,UNUSED,UNUSED,37.916668,-122.36667
RICHMOND,UEXL,UNUSED,UNUSED,37.566666,-77.433334
RICHMOND,UEXP,UNUSED,UNUSED,37.566666,-77.45
RICHMOND QM DEPOT,UFCS,UNUSED,UNUSED,37.416668,-77.433334
RICHMOND DEF SUP,UFCV,UNUSED,UNUSED,37.416668,-77.433334
RICHMOND,UFD1,UNUSED,UNUSED,37.419724,-77.45111
RILEY,UFSC,UNUSED,UNUSED,39.29889,-96.83056
RAY S MILLER AAF,UGCF,UNUSED,UNUSED,46.09111,-94.36056
RIPLEY,UGCS,UNUSED,UNUSED,35.75,-89.55
RIYADH AB,UGZX,UNUSED,UNUSED,24.712778,46.725555
ROANOKE,UHBY,UNUSED,UNUSED,37.283333,-79.95
ROANOKE REGIONAL,UHCE,UNUSED,UNUSED,37.325554,-79.975555
ROBERT GRAY AAF,UHGN,UNUSED,UNUSED,31.067223,-97.82889
ROBINS AFB,UHHZ,UNUSED,UNUSED,32.640278,-83.59194
ROBINS,UHJK,UNUSED,UNUSED,32.633335,-83.6
ROCHESTER,UJBZ,UNUSED,UNUSED,43.166668,-77.61667
ROCK ISLAND ARS,UJHQ,UNUSED,UNUSED,41.535557,-90.568886
ROCK ISLAND,UJJA,UNUSED,UNUSED,41.466667,-90.13333
ROCK ISLAND,UJJB,UNUSED,UNUSED,41.5,-90.583336
ROCK SPRINGS,UJKH,UNUSED,UNUSED,41.583332,-109.21667
ROCKVILLE,UKAP,UNUSED,UNUSED,39.1,-77.166664
ROCKY MOUNT,UKDP,UNUSED,UNUSED,35.933334,-77.8
ROLLA,UKUV,UNUSED,UNUSED,37.933334,-91.916664
ROME,ULAB,UNUSED,UNUSED,34.016666,-85.03333
ROMNEY,ULFR,UNUSED,UNUSED,39.35,-78.73333
RONKONKOMA,ULKB,UNUSED,UNUSED,40.816666,-73.11667
JOSE APONTE DE LA,ULLT,UNUSED,UNUSED,18.245277,-65.64333
ROSECRANS MEM,ULYB,UNUSED,UNUSED,39.771946,-94.90972
ROSEMONT,UMEL,UNUSED,UNUSED,41.995277,-87.884445
ROSEVILLE,UMHK,UNUSED,UNUSED,38.766666,-121.28333
ROSEVILLE,UMHZ,UNUSED,UNUSED,45.0175,-93.1525
ROSLYN,UMLH,UNUSED,UNUSED,40.8,-73.63333
ROSWELL,UMVV,UNUSED,UNUSED,33.383335,-104.51667
ROTA,UMXA,UNUSED,UNUSED,36.64639,-6.349167
ROTA NS,UMXB,UNUSED,UNUSED,36.64528,-6.3494444
ROTTERDAM,UNAP,UNUSED,UNUSED,51.883335,4.45
ROWLEY,UNFA,UNUSED,UNUSED,42.716667,-70.879166
UNKN TUNISIA,UNQU,UNUSED,UNUSED,36,10
RUSSELL GARDENS,UNUW,UNUSED,UNUSED,40.783333,-73.71667
RUSTON,UPBB,UNUSED,UNUSED,32.533333,-92.61667
SACRAMENTO DEPOT,UPWJ,UNUSED,UNUSED,38.583332,-121.48333
SACRAMENTO,UPWV,UNUSED,UNUSED,38.5,-121.5
SAGINAW,UQJP,UNUSED,UNUSED,44,-83.5
SALEM,URPB,UNUSED,UNUSED,44.933334,-123.01667
SALINA,URTH,UNUSED,UNUSED,38.84028,-97.611115
SALISBURY,URWP,UNUSED,UNUSED,38.35,-75.61667
SALT LAKE CITY,USDV,UNUSED,UNUSED,40.75,-111.85
SALT LAKE CITY IN,USEB,UNUSED,UNUSED,40.788334,-111.977776
SALUDA,USGB,UNUSED,UNUSED,34,-81.8
SAN ANTONIO,USQL,UNUSED,UNUSED,29.466667,-98.51667
SAN ANTONIO INTL,USQP,UNUSED,UNUSED,29.53389,-98.46917
SAN ANTONIO,USQX,UNUSED,UNUSED,29.418888,-98.48361
SAN BERNARDINO,USTE,UNUSED,UNUSED,34.116665,-117.316666
SAN BERNARDINO,USTK,UNUSED,UNUSED,34.116665,-117.3
SAN BRUNO,USUJ,UNUSED,UNUSED,37.616665,-122.4
SAN BRUNO,USUL,UNUSED,UNUSED,37.616665,-122.4
SAN CLEMENTE,USXL,UNUSED,UNUSED,33.433334,-117.61667
SAN DIEGO,USZD,UNUSED,UNUSED,32.716667,-117.083336
SAN DIEGO,USZE,UNUSED,UNUSED,32.683334,-117.13333
SAN DIEGO,USZF,UNUSED,UNUSED,32.683334,-117.13333
SAN DIEGO,USZV,UNUSED,UNUSED,32.75,-117.166664
SAN DIEGO,UTAC,UNUSED,UNUSED,32.75,-117.166664
SAN DIEGO NAVY,UTAD,UNUSED,UNUSED,32.75,-117.166664
SAN DIEGO FLETRAC,UTAR,UNUSED,UNUSED,32.733334,-117.21667
SAN DIEGO  NSC,UTAV,UNUSED,UNUSED,32.75,-117.166664
SAN DIEGO GEN DY,UTBL,UNUSED,UNUSED,32.733334,-117.166664
SAN DIEGO NAVSTA,UTBR,UNUSED,UNUSED,32.716667,-117.183334
SAN DIEGO NAVSUB,UTBS,UNUSED,UNUSED,32.7,-117.2
SAN DIEGO NAVAL,UTCS,UNUSED,UNUSED,32.7,-117.2
SAN FRANCISCO,UTKS,UNUSED,UNUSED,37.8,-122.416664
SAN FRANCISCO INT,UTKY,UNUSED,UNUSED,37.61889,-122.375
SAN FRANCISCO,UTLN,UNUSED,UNUSED,37.75,-122.36667
SAN FRANCISCO,UTLS,UNUSED,UNUSED,37.783333,-122.38333
SAN FRANCISCO,UTLY,UNUSED,UNUSED,37.816666,-122.416664
SAN JOSE,UTRY,UNUSED,UNUSED,37.266666,-121.916664
NORMAN Y MINETA S,UTSE,UNUSED,UNUSED,37.362778,-121.92917
SAN JOSE,UTUL,UNUSED,UNUSED,37.333332,-121.916664
SAN JUAN,UTVT,UNUSED,UNUSED,18.516666,-67.15
SAN LUIS OBISPO,UTZU,UNUSED,UNUSED,35.266666,-120.666664
SAN PEDRO,UULA,UNUSED,UNUSED,-33.683334,-59.633335
SAN PEDRO,UULB,UNUSED,UNUSED,4.733333,-6.616667
SAN PEDRO,UULX,UNUSED,UNUSED,33.75,-118.25
SAN RAFAEL,UUPL,UNUSED,UNUSED,37.95,-122.5
SANTA ANA,UWCY,UNUSED,UNUSED,33.7,-117.85
COSTA MESA,UWDE,UNUSED,UNUSED,33.65,-117.933334
TUSTIN MCAF,UWDG,UNUSED,UNUSED,33.706112,-117.827225
SANTA BARBARA,UWES,UNUSED,UNUSED,34.416668,-119.65
SANTA CLARA,UWGE,UNUSED,UNUSED,37.35,-121.96667
SANTA FE,UWLL,UNUSED,UNUSED,35.683334,-105.95
SASEBO,UYQR,UNUSED,UNUSED,33.166668,129.71666
SAULT ST MARIE,UZLZ,UNUSED,UNUSED,46.483334,-84.333336
SAVANNA DEPOT,UZVD,UNUSED,UNUSED,42.1,-90.11667
SAVANNAH,UZXF,UNUSED,UNUSED,32.066666,-81.11667
SAVANNAH,UZXJ,UNUSED,UNUSED,32.083332,-81.11667
SAVANNAH,UZXM,UNUSED,UNUSED,32.066666,-81.11667
HUNTER 02,UZYJ,UNUSED,UNUSED,32.127224,-81.19945
SCHENECTADY CO,VBDZ,UNUSED,UNUSED,42.8525,-73.92861
SCHOFIELD BRKS,VCHR,UNUSED,UNUSED,21.483334,-158.08333
SCOTT AFB MIDAMER,VDYD,UNUSED,UNUSED,38.545277,-89.83528
SEAL BEACH    NWS,VFHU,UNUSED,UNUSED,33.75,-118.15
SEAL BEACH,VFHY,UNUSED,UNUSED,33.716667,-118.083336
SEAL BEACH NWS,VFHZ,UNUSED,UNUSED,33.65,-118.183334
SEATTLE,VFTA,UNUSED,UNUSED,47.65,-122.333336
SEATTLE,VFTE,UNUSED,UNUSED,47.6,-122.316666
SEATTLE AIR NAT G,VFUL,UNUSED,UNUSED,47.65,-122.333336
SEATTLE,VFVD,UNUSED,UNUSED,47.666668,-122.25
SEATTLE,VFVN,UNUSED,UNUSED,47.6,-122.333336
SEATTLE NAVY PRT,VFXM,UNUSED,UNUSED,47.583332,-122.333336
SEATTLE TACOMA IN,VFZM,UNUSED,UNUSED,47.45,-122.31167
MUSCAT INTL,VGHV,UNUSED,UNUSED,23.593056,58.284443
SELFRIDGE ANGB,VGLZ,UNUSED,UNUSED,42.613888,-82.836945
SENECA ARMY DEPOT,VHAV,UNUSED,UNUSED,42.883335,-76.76667
SENECA ARMY DEPOT,VHAW,UNUSED,UNUSED,42.883335,-76.76667
SEPULVEDA,VHRJ,UNUSED,UNUSED,34.166668,-118.46667
SEYMOUR JOHNSON A,VKAG,UNUSED,UNUSED,35.339443,-77.960556
SFAX,VKNG,UNUSED,UNUSED,34.75,10.716666
SFAX,VKNP,UNUSED,UNUSED,34.733334,10.766666
SHAFTER,VKSB,UNUSED,UNUSED,35.5,-119.26667
SHARPE ARMY DEPOT,VLLM,UNUSED,UNUSED,37.833332,-121.26667
SHAW AFB,VLSB,UNUSED,UNUSED,33.97278,-80.47056
SHEFFIELD,VMLV,UNUSED,UNUSED,34.75,-87.5
SHEPPARD AFB WICH,VNVP,UNUSED,UNUSED,33.988888,-98.49194
SHIMIZU,VPRF,UNUSED,UNUSED,35.004166,138.49945
SHREVEPORT,VQHP,UNUSED,UNUSED,32.5,-93.76667
SHREVEPORT,VQHV,UNUSED,UNUSED,32.416668,-93.73333
SIERRA DEPOT,VRES,UNUSED,UNUSED,40.133335,-120.11667
SIGONELLA,VRJT,UNUSED,UNUSED,37.40167,14.922222
SILVER CITY,VRVB,UNUSED,UNUSED,32.766666,-108.316666
SIMMONS AAF,VSFP,UNUSED,UNUSED,35.131943,-78.93611
PAYA LEBAR,VSMR,UNUSED,UNUSED,1.3605555,103.90945
SINGAPORE,VSNF,UNUSED,UNUSED,1.35,103.916664
SIOUX CITY,VSRP,UNUSED,UNUSED,42.5,-96.4
SIOUX GATEWAY COL,VSSB,UNUSED,UNUSED,42.4025,-96.384445
SIOUX FALLS,VSTN,UNUSED,UNUSED,43.416668,-96.73333
SIOUX FALLS,VSTP,UNUSED,UNUSED,43.566666,-96.7
PHOENIX SKY HARBO,VTNB,UNUSED,UNUSED,33.434166,-112.011665
SMYRNA,VUGV,UNUSED,UNUSED,36.016666,-86.51667
SNELLING,VUKL,UNUSED,UNUSED,44.883335,-93.2
SO BEND,VURP,UNUSED,UNUSED,41.683334,-86.25
SO NORFOLK,VVMD,UNUSED,UNUSED,36.933334,-76.28333
SO PORTLAND,VVRK,UNUSED,UNUSED,43.683334,-70.3
S ST PAUL,VVYR,UNUSED,UNUSED,44.983334,-93.13333
ST LOUIS,VVYX,UNUSED,UNUSED,38.55,-89.933334
SO WEYMOUTH,VWCR,UNUSED,UNUSED,42.133335,-70.933334
SOESTERBERG,VWLB,UNUSED,UNUSED,52.127224,5.276111
SOMERVILLE,VXBD,UNUSED,UNUSED,42.4,-71.11667
SOUTH WEYMOUTH NA,VXTM,UNUSED,UNUSED,42.148613,-70.93972
S WEYMOUTH,VXTN,UNUSED,UNUSED,42.133335,-70.933334
SOUSSE,VXTS,UNUSED,UNUSED,35.833332,10.633333
SOUSSE,VXTY,UNUSED,UNUSED,35.833332,10.633333
S CHICAGO HTS,VXWQ,UNUSED,UNUSED,41.480835,-87.63778
SOUTHFIELD,VXXK,UNUSED,UNUSED,42.466667,-83.26667
HOUSTON GULF,VYFJ,UNUSED,UNUSED,29.508333,-95.05139
SPANGDAHLEM AB,VYHK,UNUSED,UNUSED,49.976665,6.6986113
SPARTA,VYNX,UNUSED,UNUSED,43.95,-90.8
SPARTANBURG,VYRR,UNUSED,UNUSED,34.933334,-81.95
SPEARFISH,VYTD,UNUSED,UNUSED,44.5,-103.88333
SPIRIT OF ST LOUI,VZAS,UNUSED,UNUSED,38.662224,-90.65195
SPOKANE ANG,VZBT,UNUSED,UNUSED,47.616665,-117.537224
SPOKANE,VZCD,UNUSED,UNUSED,47.666668,-117.416664
SPOKANE INTL,VZCR,UNUSED,UNUSED,47.619167,-117.53528
SPOKANE,VZDE,UNUSED,UNUSED,47.635277,-117.65
SPRINGER,VZQN,UNUSED,UNUSED,36.35,-104.61667
SPRINGFIELD,VZUR,UNUSED,UNUSED,39.833332,-89.666664
SPRINGFIELD ARMRY,VZWF,UNUSED,UNUSED,42.1,-72.566666
SPRINGFIELD BRANS,VZXY,UNUSED,UNUSED,37.245556,-93.38861
SPRINGFIELD,VZYD,UNUSED,UNUSED,37.183334,-93.316666
SPRINGFIELD BECKL,WAAR,UNUSED,UNUSED,39.84028,-83.84028
WAUKEGAN RGNL,WAAZ,UNUSED,UNUSED,42.422222,-87.867775
SPRINGFIELD,WADJ,UNUSED,UNUSED,42.3,-85.25
ST AUGUSTINE,WAZX,UNUSED,UNUSED,29.866667,-81.333336
ST JOSEPH,WCJX,UNUSED,UNUSED,39.75,-94.85
ST LOUIS,WCNN,UNUSED,UNUSED,43.416668,-84.6
ST LOUIS,WCPR,UNUSED,UNUSED,38.666668,-90.25
STLOUIS A T A S F,WCPS,UNUSED,UNUSED,38.65,-90.26667
ST MATTHEWS,WCXE,UNUSED,UNUSED,33.683334,-80.76667
ST PAUL,WDEY,UNUSED,UNUSED,44.95,-93.083336
LOUISVILLE INTL S,WEAS,UNUSED,UNUSED,38.174168,-85.73639
STANTON,WEPE,UNUSED,UNUSED,33.816666,-118
STAPLETON INTL,WERS,UNUSED,UNUSED,39.765278,-104.87945
STATE COLLEGE,WFGE,UNUSED,UNUSED,40.783333,-77.86667
WAHIAWA,WFKY,UNUSED,UNUSED,21.519444,-158.00583
WHIDBEY ISLAND,WHAF,UNUSED,UNUSED,48.288334,-123.632774
WHIDBEY ISL NAS,WHAH,UNUSED,UNUSED,48.35,-122.65417
STEWART INTL,WHAY,UNUSED,UNUSED,41.504166,-74.10472
WITHAM FLD,WJAE,UNUSED,UNUSED,27.181667,-80.22139
STOCKTON,WJAP,UNUSED,UNUSED,37.933334,-121.3
STRATFORD,WJUP,UNUSED,UNUSED,41.184444,-73.13361
STUTTGART,WKJP,UNUSED,UNUSED,34.5,-91.53333
FRANCIS S GABRESK,WKVB,UNUSED,UNUSED,40.843613,-72.63167
SUMTER,WMDB,UNUSED,UNUSED,33.9,-80.36667
SOUTHPORT MILITAR,WMPT,UNUSED,UNUSED,33.983334,-77.933334
SUNNYVALE,WMSA,UNUSED,UNUSED,37.366665,-122.03333
SUPERIOR,WMWC,UNUSED,UNUSED,46.716667,-92.083336
SUSAH,WMY2,UNUSED,UNUSED,35.816666,10.633333
SUSQUEHANNA OD DP,WMYX,UNUSED,UNUSED,41.95,-75.6
SYDNEY,WPAU,UNUSED,UNUSED,-33.966667,151.2
SYRACUSE,WPJC,UNUSED,UNUSED,43.05,-76.166664
TABARQA,WPKY,UNUSED,UNUSED,36.966667,8.766666
TABARQAH,WPKZ,UNUSED,UNUSED,36.95,8.75
TACOMA,WPVJ,UNUSED,UNUSED,47.25,-122.5
TACOMA,WPVT,UNUSED,UNUSED,47.266666,-122.5
TAKORADI,WQZM,UNUSED,UNUSED,4.883333,-1.75
TALLAHASSEE,WRDQ,UNUSED,UNUSED,30.433332,-84.3
TAMPA INTL,WRLK,UNUSED,UNUSED,27.975555,-82.53333
TAMPA,WRLQ,UNUSED,UNUSED,27.983334,-82.48333
TAUNTON,WSPX,UNUSED,UNUSED,41.9,-71.1
TAYLOR,WSSB,UNUSED,UNUSED,42.218056,-83.266945
CHEIKH LARBI TEBE,WSVC,UNUSED,UNUSED,35.431667,8.122222
TEMA,WTJG,UNUSED,UNUSED,5.633333,0.016666668
TERRE HAUTE,WTVR,UNUSED,UNUSED,39.466667,-87.41389
TEXARKANA,WUKK,UNUSED,UNUSED,33.416668,-94.05
TEXAS CITY,WUND,UNUSED,UNUSED,29.383333,-94.916664
THOMASVILLE,WVQD,UNUSED,UNUSED,30.833334,-83.98333
TIFTON,WWSD,UNUSED,UNUSED,31.45,-83.5
TINKER AFB,WWYK,UNUSED,UNUSED,35.414722,-97.386665
TITUSVILLE,WXPV,UNUSED,UNUSED,28.616667,-80.833336
TOBYHANNA DEPOT,WXVE,UNUSED,UNUSED,41.183334,-75.416664
TOBYHANNA,WXVK,UNUSED,UNUSED,41.216667,-75.46667
TOKYO,WYKZ,UNUSED,UNUSED,35.666668,139.75
TOLEDO,WYPX,UNUSED,UNUSED,41.65,-83.53333
TOLEDO EXPRESS,WYTD,UNUSED,UNUSED,41.586945,-83.80778
TOMAH,WYYD,UNUSED,UNUSED,44,-90.566666
TOOELE ARMY DEPOT,XABS,UNUSED,UNUSED,40.533333,-112.3
TOOELE ARMY DEPOT,XABT,UNUSED,UNUSED,40.533333,-112.3
TOOELE,XABX,UNUSED,UNUSED,40.516666,-112.316666
TOPEKA,XAHR,UNUSED,UNUSED,39.048332,-95.67778
TOPSHAM,XATX,UNUSED,UNUSED,43.95,-69.98333
TOPSHAM,XAUD,UNUSED,UNUSED,43.95,-69.98333
TORREJON,XBGX,UNUSED,UNUSED,40.496666,-3.4458334
TORRINGTON,XBPC,UNUSED,UNUSED,42.083332,-104.183334
TOWSON,XCFY,UNUSED,UNUSED,39.416668,-76.6
TRACY,XCQM,UNUSED,UNUSED,37.75,-121.433334
TRACY MUNI,XCQN,UNUSED,UNUSED,37.68889,-121.441666
TRACY DLA DISTRIB,XCYE,UNUSED,UNUSED,37.716667,-121.39611
TRAVIS AFB,XDAT,UNUSED,UNUSED,38.264446,-121.924164
TRAVIS,XDMT,UNUSED,UNUSED,38.266666,-121.933334
SAVANNAH HILTON H,XDQU,UNUSED,UNUSED,32.1275,-81.202225
TREASURE IS   NST,XDSV,UNUSED,UNUSED,37.783333,-122.316666
TRENTON,XEBA,UNUSED,UNUSED,40.216667,-74.75
TRIESTE,XEXW,UNUSED,UNUSED,45.65,13.766666
TRIPLER GENERAL,XFHH,UNUSED,UNUSED,21.366667,-157.88333
TROY,XFUA,UNUSED,UNUSED,31.783333,-85.96667
TROY,XGBX,UNUSED,UNUSED,39.019722,-80.763336
DANE CO RGNL,XGFG,UNUSED,UNUSED,43.14,-89.3375
TUCSON,XHDU,UNUSED,UNUSED,32.25,-110.95
TUCSON,XHDV,UNUSED,UNUSED,32.166668,-110.88333
TUCSON INTL,XHEA,UNUSED,UNUSED,32.11611,-110.94111
TULLAHOMA,XHWN,UNUSED,UNUSED,35.366665,-86.2
TULSA,XHZA,UNUSED,UNUSED,36.183334,-95.88333
TULSA INTL,XHZG,UNUSED,UNUSED,36.198334,-95.888054
TUNIS,XJCM,UNUSED,UNUSED,36.916668,10.25
TUNIS,XJCS,UNUSED,UNUSED,36.85,10.233334
CARTHAGE,XJJD,UNUSED,UNUSED,36.851112,10.226944
TWENTYNINE PALMS,XKZA,UNUSED,UNUSED,34.116665,-116.03333
TWENTY NINE PALMS,XKZB,UNUSED,UNUSED,34.216667,-116.03333
TWIN CITIES,XLEW,UNUSED,UNUSED,45,-93.25
TWENTYNINE PALMS,XLFR,UNUSED,UNUSED,34.116665,-116.03333
TYLER,XLSN,UNUSED,UNUSED,32.35,-95.3
TYNDALL AFB,XLWU,UNUSED,UNUSED,30.069445,-85.575554
UNION CITY,XNSM,UNUSED,UNUSED,36.416668,-89.066666
UNKN LOCATION US,XPRF,UNUSED,UNUSED,40,-100
UPPER HEYFORD,XQDT,UNUSED,UNUSED,51.93667,-1.2491666
URBANA,XQKZ,UNUSED,UNUSED,40.116665,-88.2
USAF ACADEMY,XQPZ,UNUSED,UNUSED,39,-104.88333
OLD VALDEZ,XRSP,UNUSED,UNUSED,61.136112,-146.24973
VALENCIA,XRVJ,UNUSED,UNUSED,39.45,-0.31666666
VALLEJO SHYD,XSHL,UNUSED,UNUSED,38.1,-122.316666
VALLEJO,XSHO,UNUSED,UNUSED,38.11139,-122.28389
VAN NUYS,XTBT,UNUSED,UNUSED,34.20972,-118.49
VANCE AFB,XTLF,UNUSED,UNUSED,36.33917,-97.91639
VANCOUVER,XUDN,UNUSED,UNUSED,45.616665,-122.666664
VANCOUVER,XUDT,UNUSED,UNUSED,45.633335,-122.683334
VANCOUVER BRKS,XUEX,UNUSED,UNUSED,45.633335,-122.666664
VANDENBERG AFB,XUMU,UNUSED,UNUSED,34.73722,-120.58444
VENICE,XVMN,UNUSED,UNUSED,45.433334,12.333333
VERACRUZ,XVRV,UNUSED,UNUSED,19.2,-96.13333
VICKSBURG,XXDC,UNUSED,UNUSED,32.35,-90.85
VIENNA,XYBW,UNUSED,UNUSED,41.233334,-80.666664
VILLA SAN GIOVANN,XYNK,UNUSED,UNUSED,38.216667,15.633333
VINT HILL FARM,XZPR,UNUSED,UNUSED,38.733334,-77.666664
VOLK FLD,YAQF,UNUSED,UNUSED,43.939167,-90.25305
W BEND,YBKR,UNUSED,UNUSED,43.466667,-88.2
W PALM BEACH,YDBR,UNUSED,UNUSED,26.7,-80.083336
W TRENTON,YEAF,UNUSED,UNUSED,40.266666,-74.8
WACO RGNL,YEQW,UNUSED,UNUSED,31.612223,-97.23028
WAHIAWA,YFKW,UNUSED,UNUSED,21.5,-158.05
WAIKIKI,YFWT,UNUSED,UNUSED,21.283333,-157.85
LADD AAF,YFXQ,UNUSED,UNUSED,64.8375,-147.61444
WORCHESTER 01,YHAJ,UNUSED,UNUSED,42.2,-72.53333
WALBRIDGE,YJQA,UNUSED,UNUSED,41.116665,-83.1
WALTER REED AMC,YJQF,UNUSED,UNUSED,38.966667,-77.03333
WARNER ROBINS,YKLF,UNUSED,UNUSED,32.633335,-83.6
WARREN,YKRS,UNUSED,UNUSED,41.733334,-71.28333
WARRENSVILLE HGTS,YKVG,UNUSED,UNUSED,41.433334,-81.49139
WARWICK,YLDM,UNUSED,UNUSED,41.7,-71.38333
WASHINGTON,YLHU,UNUSED,UNUSED,38.883335,-77.03333
WASHINGTON,YLJF,UNUSED,UNUSED,38.916668,-77.066666
WASHINGTON 01,YLLM,UNUSED,UNUSED,38.916668,-77
WASHINGTON 02,YLLN,UNUSED,UNUSED,38.816666,-76.86667
WASHINGTON DC,YLMY,UNUSED,UNUSED,38.816666,-76.86667
WASHINGTON TEMP 8,YLQG,UNUSED,UNUSED,38.883335,-77.03333
WASHINGTON NS,YLQH,UNUSED,UNUSED,38.822224,-76.03611
WASHINGTON,YLZT,UNUSED,UNUSED,41.299168,-91.69278
WASHINGTON,YMAG,UNUSED,UNUSED,39.818054,-97.05055
WASHINGTON,YMBF,UNUSED,UNUSED,35.55,-77.066666
WASHINGTON,YMFW,UNUSED,UNUSED,38.9,-76.95
RONALD REAGAN WAS,YMGC,UNUSED,UNUSED,38.852222,-77.03778
WASILLA,YMMK,UNUSED,UNUSED,61.25,-149.78334
WATERBURY,YMSM,UNUSED,UNUSED,41.558056,-73.05194
WATERLOO,YMXT,UNUSED,UNUSED,42.49278,-92.34278
WATERLOO RGNL,YMXZ,UNUSED,UNUSED,42.556946,-92.400276
WATERTOWN,YNEF,UNUSED,UNUSED,44.9,-97.11667
WATERVILLE,YNJF,UNUSED,UNUSED,44.566666,-69.65
WAUKEGAN,YNWK,UNUSED,UNUSED,42.39722,-87.873055
WAUSAU,YPAZ,UNUSED,UNUSED,44.966667,-89.63333
WAVERLY,YPEA,UNUSED,UNUSED,36.083332,-87.8
WEBBERS FALLS OK,YQPQ,UNUSED,UNUSED,35.559723,-95.173615
WELLESLEY,YRLZ,UNUSED,UNUSED,42.466667,-71.28333
WELLINGTON,YRTK,UNUSED,UNUSED,-41.366665,174.85
W JORDAN,YSYV,UNUSED,UNUSED,40.616665,-111.933334
WESTOVER ARB METR,YTPM,UNUSED,UNUSED,42.19389,-72.53472
YUMA AUX 2,YUAC,UNUSED,UNUSED,32.550835,-114.50528
WETUMPKA,YUPT,UNUSED,UNUSED,32.533333,-86.21667
WHEELER AAF,YVEW,UNUSED,UNUSED,21.481667,-158.03694
WHEELER SACK AAF,YVGQ,UNUSED,UNUSED,44.055557,-75.72
WHIDBEY ISLAND NA,YVPG,UNUSED,UNUSED,48.351944,-122.65583
WHITEFISH BAY,YWBX,UNUSED,UNUSED,43.116665,-87.9
WHITEMAN AFB,YWHG,UNUSED,UNUSED,38.730278,-93.547775
WICHITA MID CONTI,YXKB,UNUSED,UNUSED,37.65,-97.43305
WILL ROGERS WORLD,YZEU,UNUSED,UNUSED,35.393055,-97.60083
CHANDLER MUNI,YZJU,UNUSED,UNUSED,33.269165,-111.81111
WILLIAMSBURG,ZABA,UNUSED,UNUSED,37.25,-76.666664
WILLIAMSBURG,ZABF,UNUSED,UNUSED,37.25,-76.666664
WILLOW GROVE,ZAWA,UNUSED,UNUSED,40.2,-75.15
WILLOW GROVE NAS,ZAWN,UNUSED,UNUSED,40.199722,-75.148056
WILMINGTON,ZBBU,UNUSED,UNUSED,39.745834,-75.54694
WILMINGTON,ZBEN,UNUSED,UNUSED,34.233334,-77.916664
WILMINGTON,ZBES,UNUSED,UNUSED,34.233334,-77.95
WINCHESTER,ZBUL,UNUSED,UNUSED,35.183334,-86.11667
WINCHESTER,ZBVU,UNUSED,UNUSED,39.166668,-78.2
WINSTON SALEM,ZDLG,UNUSED,UNUSED,36.083332,-80.3
WISCONSIN RAPIDS,ZDXA,UNUSED,UNUSED,44.416668,-89.833336
WOODBRIDGE,ZFKN,UNUSED,UNUSED,52.08972,1.4055556
WOODBURN,ZFNU,UNUSED,UNUSED,45.15,-122.86667
WOODS HOLE,ZFTU,UNUSED,UNUSED,41.516666,-70.666664
WORCESTER,ZHAH,UNUSED,UNUSED,42.2,-72.53333
WORCESTER,ZHAP,UNUSED,UNUSED,42.283333,-71.8
WORCESTER,ZHBP,UNUSED,UNUSED,41.633335,-79.666664
WR PATT SYS ONLY,ZHTP,UNUSED,UNUSED,39.825554,-84.05
WRIGHT PATTERSON,ZHTV,UNUSED,UNUSED,39.82611,-84.04833
WRIGHT PATTERSON,ZHUE,UNUSED,UNUSED,39.826668,-84.04833
OSCODA WURTSMITH,ZJXD,UNUSED,UNUSED,44.451668,-83.394165
WYOMING,ZKPY,UNUSED,UNUSED,41.3,-75.833336
YAKIMA AIR TERMIN,ZLJP,UNUSED,UNUSED,46.568054,-120.54417
YAKIMA,ZLJS,UNUSED,UNUSED,46.933334,-120.5
JBLM YAKIMA FIRIN,ZLJW,UNUSED,UNUSED,46.583332,-120.5
YANBU AL SINAIYAH,ZLVW,UNUSED,UNUSED,23.963888,38.202778
YANTIAN PORT FAC,ZMJJ,UNUSED,UNUSED,22.6,114.26667
YOAKUM,ZNHL,UNUSED,UNUSED,29.3,-97.15
YOKOHAMA COMMERCI,ZNMC,UNUSED,UNUSED,35.45,139.65
YOKOTA AB,ZNRE,UNUSED,UNUSED,35.74861,139.34862
YORKTOWN,ZQAE,UNUSED,UNUSED,37.233334,-76.53333
YORKTOWN      NWS,ZQAF,UNUSED,UNUSED,37.233334,-76.53333
YORKTOWN NWS,ZQAH,UNUSED,UNUSED,37.233334,-76.53333
YORKTOWN NWS,ZQAJ,UNUSED,UNUSED,37.233334,-76.53333
YOUNGSTOWN,ZQEA,UNUSED,UNUSED,41.25611,-80.66972
YOUNGSTOWN WARREN,ZQEL,UNUSED,UNUSED,41.261665,-80.680275
YPSILANTI,ZQLL,UNUSED,UNUSED,42.233334,-83.61667
YUMA MCAS,ZRBF,UNUSED,UNUSED,32.656387,-114.605
YUMA INTL,ZRCE,UNUSED,UNUSED,32.656387,-114.605
ZANESVILLE MUNI,ZRUZ,UNUSED,UNUSED,39.944443,-81.89222
ZANESVILLE,ZRVL,UNUSED,UNUSED,39.916668,-82.03333
ZARZIS,ZSAK,UNUSED,UNUSED,33.497223,11.121667
ZHAPU,ZSJC,UNUSED,UNUSED,30.583334,121.1
