Model,FedTime,Longitude,Latitude,Geoloc,Name,Theater
MAIN,-2,-66.0,40.0,00A1,NW ATLANTIC,STRATEGIC
MAIN,-2,75.0,-15.0,00IO,INDIAN OCEAN,STRATEGIC
MAIN,-2,6.0,40.0,00XT,WESTERN MED,STRATEGIC
MAIN,-2,-85.26667022705078,31.53333282470703,AAFR,ABBEVILLE,CONUS
MAIN,-2,-76.1361083984375,39.49166488647461,AAMP,ABERDEEN PROV GND,CONUS
MAIN,-2,-4.016666889190674,5.25,AAPV,ABIDJAN,STRATEGIC
MAIN,-2,-99.73332977294922,32.45000076293945,AART,ABILENE,CONUS
MAIN,-2,-99.68194580078125,32.4113883972168,AARV,ABILENE RGNL,CONUS
MAIN,-2,-86.36250305175781,32.349998474121094,ABAA,ABSTON,CONUS
MAIN,-2,50.099998474121094,26.433332443237305,ABFL,AD DAMMAM,STRATEGIC
MAIN,-2,-76.94999694824219,39.0,ABTW,ADELPHI,CONUS
MAIN,-2,-77.00916290283203,38.897499084472656,ABXK,ADELPHI,CONUS
MAIN,-2,-118.25,34.0,ACJP,LOS ANGELES,CONUS
MAIN,-2,-157.93333435058594,21.383333206176758,ACWE,AIEA,CONUS
MAIN,-2,-81.5,41.08333206176758,ADHB,AKRON,CONUS
MAIN,-2,50.599998474121094,26.200000762939453,ADKH,AL BAHRAYN MINA S,STRATEGIC
MAIN,-2,11.050000190734863,35.5,ADLS,AL MAHDIYAH,Tunisia
MAIN,-2,-105.01333618164062,39.70861053466797,ADNA,ALAMEDA,CONUS
MAIN,-2,-122.23332977294922,37.733333587646484,ADNB,ALAMEDA,CONUS
MAIN,-2,-121.48332977294922,37.78333282470703,ADNC,ALAMEDA,CONUS
MAIN,-2,-122.32555389404297,37.79055404663086,ADND,ALAMEDA NAS,CONUS
MAIN,-2,-121.48332977294922,37.78333282470703,ADNE,ALAMEDA,CONUS
MAIN,-2,-122.32444763183594,37.79055404663086,ADNF,ALAMEDA NAS,CONUS
MAIN,-2,-122.2699966430664,37.77694320678711,ADNG,ALAMEDA,CONUS
MAIN,-2,-122.26667022705078,37.78333282470703,ADNK,ALAMEDA PT MARAD,CONUS
MAIN,-2,-122.31666564941406,37.78333282470703,ADNR,ALAMEDA        BA,CONUS
MAIN,-2,-105.9888916015625,32.84138870239258,ADQM,ALAMOGORDO WHITE,CONUS
MAIN,-2,-84.16666412353516,31.616666793823242,ADUK,ALBANY,CONUS
MAIN,-2,-84.08333587646484,31.600000381469727,ADUP,ALBANY        MSC,CONUS
MAIN,-2,-84.16666412353516,31.616666793823242,ADUQ,ALBANY,CONUS
MAIN,-2,-73.80000305175781,42.66666793823242,ADVK,ALBANY,CONUS
MAIN,-2,-73.80194091796875,42.749168395996094,ADVM,ALBANY INTL,CONUS
MAIN,-2,-84.19444274902344,31.535554885864258,ADVN,SOUTHWEST GEORGIA,CONUS
MAIN,-2,-80.3499984741211,35.349998474121094,ADXV,ALBEMARLE,CONUS
MAIN,-2,-98.4111099243164,35.2327766418457,ADYK,ALBERT,CONUS
MAIN,-2,-106.6500015258789,35.08333206176758,AEBS,ALBUQUERQUE,CONUS
MAIN,-2,-84.0,35.78333282470703,AECW,ALCOA,CONUS
MAIN,-2,-0.21138888597488403,52.372501373291016,AEDY,ALCONBURY,STRATEGIC
MAIN,-2,-86.0,32.95000076293945,AELJ,ALEXANDER CITY,CONUS
MAIN,-2,29.899999618530273,31.183332443237305,AELU,ALEXANDRIA,STRATEGIC
MAIN,-2,-77.06666564941406,38.81666564941406,AEPL,ALEXANDRIA,CONUS
MAIN,-2,-77.1500015258789,38.81666564941406,AEPQ,ALEXANDRIA,CONUS
MAIN,-2,-5.449999809265137,36.13333511352539,AEQT,ALGECIRAS,STRATEGIC
MAIN,-2,-81.30000305175781,33.016666412353516,AFKB,ALLENDALE,CONUS
MAIN,-2,-75.4405517578125,40.65250015258789,AFMS,LEHIGH VALLEY INT,CONUS
MAIN,-2,-75.5,40.599998474121094,AFMY,ALLENTOWN,CONUS
MAIN,-2,-99.26805877685547,34.66638946533203,AGGN,ALTUS AFB,CONUS
MAIN,-2,-101.7058334350586,35.219444274902344,AGWF,RICK HUSBAND AMAR,CONUS
MAIN,-2,-93.61972045898438,42.03472137451172,AHQM,AMES,CONUS
MAIN,-2,-73.36666870117188,40.66666793823242,AHTM,AMITYVILLE,CONUS
MAIN,-2,-122.61666870117188,48.516666412353516,AHWQ,ANACORTES,CONUS
MAIN,-2,-76.98332977294922,38.86666488647461,AHXM,ANACOSTIA,CONUS
MAIN,-2,-149.98333740234375,61.16666793823242,AJAM,ANCHORAGE,CONUS
MAIN,-2,-149.9983367919922,61.17416763305664,AJBQ,TED STEVENS ANCHO,CONUS
MAIN,-2,-149.89999389648438,61.21666717529297,AJBR,ANCHORAGE,CONUS
MAIN,-2,13.5,43.61666488647461,AJGX,ANCONA,STRATEGIC
MAIN,-2,144.92999267578125,13.58388900756836,AJJY,ANDERSEN AFB,STRATEGIC
MAIN,-2,-85.6802749633789,40.10527801513672,AJND,ANDERSON,CONUS
MAIN,-2,-76.86666870117188,38.81083297729492,AJXF,JOINT BASE ANDREW,CONUS
MAIN,-2,-76.86666870117188,38.79999923706055,AJXH,ANDREWS       ANG,CONUS
MAIN,-2,-76.86722564697266,38.81083297729492,AJXL,ANDREWS AFB,CONUS
MAIN,-2,-76.5,38.983333587646484,AKUS,ANNAPOLIS,CONUS
MAIN,-2,-76.48332977294922,38.983333587646484,AKUU,ANNAPOLIS,CONUS
MAIN,-2,-85.98332977294922,33.61666488647461,AKWB,ANNISTON,CONUS
MAIN,-2,-85.86666870117188,33.63333511352539,AKWQ,ANNISTON ARMY DEP,CONUS
MAIN,-2,-85.86666870117188,33.63333511352539,AKWS,ANNISTON ARMY DEP,CONUS
MAIN,-2,-85.86666870117188,33.63333511352539,AKWU,ANNISTON,CONUS
MAIN,-2,-99.91666412353516,32.75,ALEX,ANSON,CONUS
MAIN,-2,4.333333492279053,51.266666412353516,ALRF,ANTWERP,STRATEGIC
MAIN,-2,-88.41666412353516,44.25,AMCG,APPLETON,CONUS
MAIN,-2,144.61666870117188,13.449999809265137,AMCQ,APRA HARBOR,STRATEGIC
MAIN,-2,-65.87222290039062,8.394166946411133,AMES,ARACAY ABAJO,STRATEGIC
MAIN,-2,-93.1522216796875,45.04999923706055,AMVP,ARDEN HILLS,CONUS
MAIN,-2,-97.1500015258789,34.11666488647461,AMYJ,ARDMORE,CONUS
MAIN,-2,-76.49166870117188,38.988887786865234,ANAD,ANNAPOLIS,CONUS
MAIN,-2,-86.08333587646484,35.38333511352539,ANZY,ARNOLD,CONUS
MAIN,-2,10.149999618530273,34.31666564941406,APFD,AS SUKHAYRAH,Tunisia
MAIN,-2,47.91666793823242,29.350000381469727,APGW,ASH SHUWAIKH COMM,STRATEGIC
MAIN,-2,-85.83333587646484,33.25,APKH,ASHLAND,CONUS
MAIN,-2,-82.28333282470703,40.88333511352539,APNG,ASHLAND,CONUS
MAIN,-2,11.399999618530273,34.28333282470703,APRJ,ASHTART,Tunisia
MAIN,-2,-86.96666717529297,34.79999923706055,AQEN,ATHENS,CONUS
MAIN,-2,-83.4000015258789,33.95000076293945,AQEZ,ATHENS,CONUS
MAIN,-2,-84.42778015136719,33.63666534423828,AQLM,HARTSFIELD JACKSO,CONUS
MAIN,-2,-84.69999694824219,33.75,AQLV,ATLANTA,CONUS
MAIN,-2,-84.46666717529297,33.5,AQLW,ATLANTA,CONUS
MAIN,-2,-84.36666870117188,33.75,AQLZ,ATLANTA,CONUS
MAIN,-2,-84.3499984741211,33.58333206176758,AQMV,FT GILLEM,CONUS
MAIN,-2,-74.45610809326172,39.36000061035156,AQRC,ATLANTIC CITY MUN,CONUS
MAIN,-2,-82.0,33.483333587646484,ARNS,AUGUSTA,CONUS
MAIN,-2,-81.96444702148438,33.369998931884766,ARNW,AUGUSTA RGNL AT B,CONUS
MAIN,-2,-97.97638702392578,37.686668395996094,ARPM,AUGUSTA,CONUS
MAIN,-2,-69.75,44.33333206176758,ARPZ,AUGUSTA,CONUS
MAIN,-2,-104.83139038085938,39.72944259643555,ARTZ,AURORA,CONUS
MAIN,-2,-88.31666564941406,41.75,ARUZ,AURORA,CONUS
MAIN,-2,-97.71666717529297,30.266666412353516,ASAZ,AUSTIN,CONUS
MAIN,-2,-88.12972259521484,44.48472213745117,ASCE,AUSTIN STRAUBEL I,CONUS
MAIN,-2,12.596388816833496,46.03111267089844,ASHE,AVIANO AB,STRATEGIC
MAIN,-2,-81.34944152832031,27.650554656982422,ASPQ,MACDILL AFB AUX F,CONUS
MAIN,-2,-79.03333282470703,35.16666793823242,ATNV,BADIN,CONUS
MAIN,-2,-79.03333282470703,35.16666793823242,ATNZ,BADIN,CONUS
MAIN,-2,-85.19527435302734,40.97861099243164,ATQZ,FORT WAYNE INTL,CONUS
MAIN,-2,50.63694381713867,26.268054962158203,ATXK,BAHRAIN INTL,STRATEGIC
MAIN,-2,-77.13333129882812,38.81666564941406,ATYC,BAILEYS CROSS RDS,CONUS
MAIN,-2,-119.0,35.41666793823242,AUSJ,BAKERSFIELD,CONUS
MAIN,-2,-76.61666870117188,39.29999923706055,AVBT,BALTIMORE,CONUS
MAIN,-2,-76.58333587646484,39.266666412353516,AVBU,BALTIMORE OUTPORT,CONUS
MAIN,-2,-76.625,39.344444274902344,AVDC,BALTIMORE HLNDS,CONUS
MAIN,-2,-68.69999694824219,44.79999923706055,AVND,BANGOR,CONUS
MAIN,-2,-122.75,47.68333435058594,AVPN,BANGOR NAVAL SUBM,CONUS
MAIN,-2,-122.5999984741211,47.79999923706055,AVPR,BANGOR POMFPAL,CONUS
MAIN,-2,-122.5999984741211,47.79999923706055,AVPV,BANGOR,CONUS
MAIN,-2,9.883333206176758,37.28333282470703,AVTB,BANZART,Tunisia
MAIN,-2,-158.10000610351562,21.300556182861328,AVXS,BARBERS POINT CGA,CONUS
MAIN,-2,-158.06666564941406,21.299999237060547,AVXU,KAPOLEI,CONUS
MAIN,-2,-158.07028198242188,21.307222366333008,AVXV,KALAELOA,CONUS
MAIN,-2,-158.06666564941406,21.299999237060547,AVXW,BARBERS POINT NAS,CONUS
MAIN,-2,2.1666667461395264,41.349998474121094,AVYX,BARCELONA,STRATEGIC
MAIN,-2,-93.6624984741211,32.50194549560547,AWUB,BARKSDALE AFB,CONUS
MAIN,-2,-72.71583557128906,42.15805435180664,AXQD,WESTFIELD BARNES,CONUS
MAIN,-2,-117.0,34.900001525878906,AYDE,BARSTOW       MSC,CONUS
MAIN,-2,-117.0,34.900001525878906,AYDK,BARSTOW,CONUS
MAIN,-2,12.716666221618652,54.36666488647461,AYER,BARTH,STRATEGIC
MAIN,-2,-88.2427749633789,30.691389083862305,AYSX,MOBILE RGNL,CONUS
MAIN,-2,-91.05000305175781,30.41666603088379,AYYX,BATON ROUGE,CONUS
MAIN,-2,-91.0999984741211,30.450000762939453,AYYY,BATON ROUGE,CONUS
MAIN,-2,-85.18333435058594,42.31666564941406,AYZZ,BATTLE CREEK,CONUS
MAIN,-2,-83.86666870117188,43.599998474121094,AZJH,BAY CITY,CONUS
MAIN,-2,-74.13333129882812,40.650001525878906,AZTE,BAYONNE,CONUS
MAIN,-2,-74.0999984741211,40.68333435058594,AZTG,BAYONNE,CONUS
MAIN,-2,46.57083511352539,24.97361183166504,BACA,BANBAN,STRATEGIC
MAIN,-2,-121.4366683959961,39.136112213134766,BAEY,BEALE AFB,CONUS
MAIN,-2,-121.43333435058594,39.13333511352539,BASD,BEALE,CONUS
MAIN,-2,-76.66666412353516,34.71666717529297,BBGP,BEAUFORT,CONUS
MAIN,-2,-80.72305297851562,32.477500915527344,BBJM,BEAUFORT MCAS,CONUS
MAIN,-2,-80.6683349609375,32.436668395996094,BBJS,BEAUFORT NAVY,CONUS
MAIN,-2,-94.08333587646484,30.08333396911621,BBNQ,BEAUMONT T2,CONUS
MAIN,-2,-94.11666870117188,30.08333396911621,BBNR,BEAUMONT,CONUS
MAIN,-2,-94.08333587646484,30.08333396911621,BBNV,BEAUMONT,CONUS
MAIN,-2,-80.31666564941406,40.75,BCDZ,BEAVER FALLS,CONUS
MAIN,-2,-81.28333282470703,37.733333587646484,BCMV,BECKLEY,CONUS
MAIN,-2,-106.78333282470703,34.650001525878906,BDQZ,BELEN,CONUS
MAIN,-2,-89.98833465576172,29.854999542236328,BEGS,BELLE CHASSE,CONUS
MAIN,-2,-82.81722259521484,27.921112060546875,BELL,BELLEAIR BLUFFS,CONUS
MAIN,-2,-122.5374984741211,48.79277801513672,BFHX,BELLINGHAM INTL,CONUS
MAIN,-2,-157.71945190429688,21.366111755371094,BFMV,BELLOWS AFS,CONUS
MAIN,-2,-89.01667022705078,42.516666412353516,BFTZ,BELOIT,CONUS
MAIN,-2,-97.66999816894531,30.19444465637207,BJHZ,AUSTIN BERGSTROM,CONUS
MAIN,-2,-86.67833709716797,36.12444305419922,BKTZ,NASHVILLE INTL,CONUS
MAIN,-2,-86.76667022705078,33.400001525878906,BLMR,BESSEMER,CONUS
MAIN,-2,-77.09278106689453,39.00166702270508,BMGM,WRNM MEDICAL CTR,CONUS
MAIN,-2,-82.78333282470703,36.83333206176758,BPRE,BIG STONE GAP,CONUS
MAIN,-2,-106.37999725341797,31.849445343017578,BPWZ,BIGGS AAF,CONUS
MAIN,-2,-108.5,45.78333282470703,BQKY,BILLINGS,CONUS
MAIN,-2,-75.91666412353516,42.099998474121094,BQUG,BINGHAMTON,CONUS
MAIN,-2,67.33333587646484,24.766666412353516,BQWA,MUHAMMAD QASIM,STRATEGIC
MAIN,-2,8.075277328491211,34.752498626708984,BQWK,BIR EL ATER,Tunisia
MAIN,-2,-122.69027709960938,47.594444274902344,BRAE,BREMERTON,CONUS
MAIN,-2,-86.81666564941406,33.516666412353516,BRKM,BIRMINGHAM,CONUS
MAIN,-2,-86.7522201538086,33.56388854980469,BRKR,BIRMINGHAM SHUTTL,CONUS
MAIN,-2,-100.80000305175781,46.83333206176758,BSEH,BISMARCK,CONUS
MAIN,-2,-100.74583435058594,46.77277755737305,BSEM,BISMARCK MUNI,CONUS
MAIN,-2,10.233333587646484,36.849998474121094,BSRK,BIZERTE,Tunisia
MAIN,-2,9.899999618530273,37.28333282470703,BSRL,BIZERTE,Tunisia
MAIN,-2,9.792778015136719,37.244720458984375,BSRR,SIDI AHMED AIR BA,Tunisia
MAIN,-2,-77.94999694824219,37.08333206176758,BTHP,BLACKSTONE,CONUS
MAIN,-2,-88.98332977294922,40.483333587646484,BUWC,BLOOMINGTON,CONUS
MAIN,-2,-84.38333129882812,39.25,BVGM,BLUE ASH,CONUS
MAIN,-2,-84.21666717529297,37.70000076293945,BVJS,BLUE GRASS DEPOT,CONUS
MAIN,-2,-84.60861206054688,38.03666687011719,BWBU,BLUE GRASS,CONUS
MAIN,-2,-89.94388580322266,35.96444320678711,BWKR,ARKANSAS INTL,CONUS
MAIN,-2,-89.91666412353516,35.93333435058594,BWKV,BLYTHEVILLE,CONUS
MAIN,-2,-116.2227783203125,43.56444549560547,BXRH,BOISE AIR TERMINA,CONUS
MAIN,-2,-116.16666412353516,43.63333511352539,BXRM,BOISE,CONUS
MAIN,-2,-77.01611328125,38.842777252197266,BXUR,BOLLING AFB HELI,CONUS
MAIN,-2,7.809444427490234,36.82222366333008,BYKA,RABAH BITAT,Tunisia
MAIN,-2,7.766666889190674,36.900001525878906,BYKC,BONE,Tunisia
MAIN,-2,7.7833333015441895,36.91666793823242,BYKF,BONE AND SCHEMES,Tunisia
MAIN,-2,-117.35527801513672,33.301387786865234,CAAP,CAMP PENDLETON MC,CONUS
MAIN,-2,-80.56666564941406,28.467500686645508,CAAY,CAPE CANAVERAL AF,CONUS
MAIN,-2,-77.3647232055664,34.7227783203125,CABM,CP LEJUENE,CONUS
MAIN,-2,-71.06666564941406,42.349998474121094,CAMD,BOSTON,CONUS
MAIN,-2,-71.0,42.36666488647461,CAMK,BOSTON,CONUS
MAIN,-2,-122.19999694824219,47.766666412353516,CBEF,BOTHELL,CONUS
MAIN,-2,-86.44999694824219,37.0,CCTS,BOWLING GREEN,CONUS
MAIN,-2,-72.68333435058594,41.93916702270508,CEKT,BRADLEY INTL,CONUS
MAIN,-2,-89.98332977294922,32.266666412353516,CFGM,BRANDON,CONUS
MAIN,-2,-76.9000015258789,34.90638732910156,CHBA,CHERRY POINT,CONUS
MAIN,-2,-79.94999694824219,32.79999923706055,CHBM,CHARLESTON,CONUS
MAIN,-2,8.550000190734863,53.54999923706055,CHCY,BREMERHAVEN,STRATEGIC
MAIN,-2,-122.6500015258789,47.56666564941406,CHEV,BREMERTON,CONUS
MAIN,-2,-122.6500015258789,47.56666564941406,CHEX,BREMERTON SEALAND,CONUS
MAIN,-2,-96.4000015258789,30.149999618530273,CHJY,BRENHAM,CONUS
MAIN,-2,-82.75,35.266666412353516,CHSY,BREVARD,CONUS
MAIN,-2,-90.46666717529297,38.78333282470703,CJJY,BRIDGETON,CONUS
MAIN,-2,-74.86666870117188,40.099998474121094,CKMQ,BRISTOL,CONUS
MAIN,-2,-147.56361389160156,64.45333099365234,CLAG,CLEAR CREEK,CONUS
MAIN,-2,-71.01667022705078,42.099998474121094,CLCH,BROCKTON,CONUS
MAIN,-2,-95.80000305175781,36.06666564941406,CLLH,BROKEN ARROW,CONUS
MAIN,-2,-73.86666870117188,40.83333206176758,CLXR,BRONX,CONUS
MAIN,-2,-96.78333282470703,44.31666564941406,CMHF,BROOKINGS,CONUS
MAIN,-2,-73.96666717529297,40.66666793823242,CMMC,BROOKLYN,CONUS
MAIN,-2,-73.96944427490234,40.711944580078125,CMXJ,BROOKLYN,CONUS
MAIN,-2,-81.81666564941406,41.400001525878906,CMZJ,BROOKPARK,CONUS
MAIN,-2,-98.43194580078125,29.346389770507812,CNBC,BROOKS CITY BASE,CONUS
MAIN,-2,-91.96138763427734,30.146944046020508,CNRA,BROUSSARD,CONUS
MAIN,-2,-97.26638793945312,27.68777847290039,CPBE,CORPUS CHRISTI,CONUS
MAIN,-2,-79.9000015258789,40.016666412353516,CPJF,BROWNSVILLE,CONUS
MAIN,-2,-97.5,25.91666603088379,CPNF,BROWNSVILLE,CONUS
MAIN,-2,-81.5,31.149999618530273,CQJP,BRUNSWICK,CONUS
MAIN,-2,-69.93888854980469,43.89250183105469,CQLW,BRUNSWICK EXECUTI,CONUS
MAIN,-2,-104.75166320800781,39.70166778564453,CRWU,BUCKLEY AFB,CONUS
MAIN,-2,-85.63333129882812,38.20000076293945,CSEM,BUECHEL,CONUS
MAIN,-2,-78.86666870117188,42.86666488647461,CSHW,BUFFALO,CONUS
MAIN,-2,-93.83333587646484,45.16666793823242,CSJF,BUFFALO,CONUS
MAIN,-2,-78.88333129882812,42.88333511352539,CSKQ,BUFFALO,CONUS
MAIN,-2,-104.3066635131836,38.75833511352539,CTCN,USAF ACADEMY BULL,CONUS
MAIN,-2,-86.14167022705078,40.65999984741211,CTGB,GRISSOM AFRES,CONUS
MAIN,-2,-86.1522216796875,40.64805603027344,CTGC,GRISSOM ARB,CONUS
MAIN,-2,-73.15333557128906,44.47194290161133,CURZ,BURLINGTON INTL,CONUS
MAIN,-2,-79.9000015258789,40.849998474121094,CVLD,BUTLER,CONUS
MAIN,-2,-78.76667022705078,36.13333511352539,CVLK,BUTNER,CONUS
MAIN,-2,-104.75666809082031,38.6783332824707,CVPF,BUTTS AAF,CONUS
MAIN,-2,-77.3197250366211,37.505279541015625,CVVM,RICHMOND INTL,CONUS
MAIN,-2,-85.36666870117188,44.233333587646484,CWBG,CADILLAC,CONUS
MAIN,-2,-81.0,40.29999923706055,CWCE,CADIZ,CONUS
MAIN,-2,-6.2841668128967285,36.38333511352539,CWCP,CADIZ,STRATEGIC
MAIN,-2,124.6500015258789,8.5,CWGV,CAGAYAN DE ORO,STRATEGIC
MAIN,-2,-77.33333587646484,34.66666793823242,CWKR,CP LEJEUNE,CONUS
MAIN,-2,30.915555953979492,30.11638832092285,CWKW,CAIRO WEST,STRATEGIC
MAIN,-2,-116.66666412353516,43.650001525878906,CWWK,CALDWELL,CONUS
MAIN,-2,-92.83333587646484,33.516666412353516,CYCQ,CAMDEN,CONUS
MAIN,-2,-75.11666870117188,39.93333435058594,CYEQ,CAMDEN,CONUS
MAIN,-2,-80.5999984741211,34.266666412353516,CYJU,CAMDEN,CONUS
MAIN,-2,-92.03333282470703,34.11666488647461,CYPV,CP J T ROBINSON,CONUS
MAIN,-2,-157.929443359375,21.31916618347168,CYTW,CAMP H M SMITH,CONUS
MAIN,-2,-87.49610900878906,36.668609619140625,CYWF,CAMPBELL AAF,CONUS
MAIN,-2,-99.19999694824219,48.483333587646484,CZJF,CANDO,CONUS
MAIN,-2,-103.32250213623047,34.38249969482422,CZQZ,CANNON AFB,CONUS
MAIN,-2,-89.51667022705078,37.31666564941406,DBMT,CAPE GIRARDEAU,CONUS
MAIN,-2,-74.81666564941406,39.08333206176758,DBRT,CAPE MAY,CONUS
MAIN,-2,-89.67805480957031,39.84416580200195,DCFT,ABRAHAM LINCOLN C,CONUS
MAIN,-2,-97.44166564941406,32.7691650390625,DDPF,FORT WORTH NAS JR,CONUS
MAIN,-2,-97.43333435058594,32.78333282470703,DDPK,CARSWELL,CONUS
MAIN,-2,-97.43333435058594,32.733333587646484,DDQW,CARSWELL,CONUS
MAIN,-2,-94.33333587646484,37.16666793823242,DEFW,CARTHAGE,CONUS
MAIN,-2,-106.33333587646484,42.83333206176758,DERM,CASPER,CONUS
MAIN,-2,-120.5683364868164,37.38055419921875,DESR,CASTLE,CONUS
MAIN,-2,-81.8772201538086,30.218889236450195,DGAB,CECIL,CONUS
MAIN,-2,-91.64389038085938,42.00833511352539,DGGB,CEDAR RAPIDS,CONUS
MAIN,-2,-91.66471862792969,41.96666717529297,DGGD,CEDAR RAPIDS,CONUS
MAIN,-2,-87.13333129882812,32.93333435058594,DGXC,CENTERVILLE,CONUS
MAIN,-2,-77.66666412353516,39.95000076293945,DHQB,CHAMBERSBURG,CONUS
MAIN,-2,-84.36666870117188,33.58333206176758,DHRF,CHAMBLEE,CONUS
MAIN,-2,-119.11111450195312,34.141666412353516,DJCF,CHANNEL ISLANDS A,CONUS
MAIN,-2,-94.04722595214844,35.29999923706055,DKAD,CHARLESTON,CONUS
MAIN,-2,-80.04055786132812,32.89861297607422,DKFX,JB CHARLESTON,CONUS
MAIN,-2,-79.91666412353516,32.78333282470703,DKFY,CHARLESTON NAVY,CONUS
MAIN,-2,-79.97972106933594,32.9033317565918,DKGJ,NORTH CHARLESTON,CONUS
MAIN,-2,-79.96666717529297,32.79999923706055,DKGK,CHARLESTON,CONUS
MAIN,-2,-79.93138885498047,32.776390075683594,DKGL,CHARLESTON,CONUS
MAIN,-2,-80.03333282470703,32.900001525878906,DKGT,CHARLESTON    NWS,CONUS
MAIN,-2,-79.91666412353516,32.78333282470703,DKSD,CHARLESTON,CONUS
MAIN,-2,-79.93000030517578,32.76333236694336,DKTB,CHARLESTON NAVY,CONUS
MAIN,-2,-81.76667022705078,38.349998474121094,DKTT,CHARLESTON,CONUS
MAIN,-2,-81.63333129882812,38.36666488647461,DKTX,CHARLESTON,CONUS
MAIN,-2,-80.03333282470703,32.900001525878906,DKVL,CHARLESTON NAV YD,CONUS
MAIN,-2,-80.83333587646484,35.233333587646484,DLAL,CHARLOTTE,CONUS
MAIN,-2,-86.51667022705078,36.016666412353516,DLUL,CHATTANOOGA,CONUS
MAIN,-2,-76.66666412353516,37.25,DLZC,CHEATHAM ANX  NSC,CONUS
MAIN,-2,-95.5513916015625,42.74944305419922,DNJC,CHEROKEE,CONUS
MAIN,-2,-76.88333129882812,34.900001525878906,DNNH,CHERRY POINT,CONUS
MAIN,-2,-76.8808364868164,34.90083312988281,DNNL,CHERRY POINT MCAS,CONUS
MAIN,-2,-76.86666870117188,34.900001525878906,DNNM,MCAS CHERRY POINT,CONUS
MAIN,-2,-75.38333129882812,39.83333206176758,DNRV,CHESTER,CONUS
MAIN,-2,-104.83333587646484,41.13333511352539,DPEV,CHEYENNE,CONUS
MAIN,-2,-104.81055450439453,41.155555725097656,DPEZ,CHEYENNE RGNL JER,CONUS
MAIN,-2,-104.71666717529297,38.81666564941406,DPFM,CHEYENNE MT CMPLX,CONUS
MAIN,-2,-87.5999984741211,41.88333511352539,DPLX,CHICAGO,CONUS
MAIN,-2,-87.81666564941406,42.08333206176758,DPMA,CHICAGO,CONUS
MAIN,-2,-87.75,41.83333206176758,DPMD,CHICAGO,CONUS
MAIN,-2,-87.90666961669922,41.981666564941406,DPMZ,CHICAGO OHARE INT,CONUS
MAIN,-2,-87.90611267089844,41.97805404663086,DPNB,OHARE,CONUS
MAIN,-2,-87.77916717529297,41.70138931274414,DPNV,CHICAGO RIDGE,CONUS
MAIN,-2,-72.61666870117188,42.18333435058594,DPYZ,CHICOPEE,CONUS
MAIN,-2,128.6666717529297,35.13333511352539,DRUG,CHINHAE,STRATEGIC
MAIN,-2,-87.96666717529297,43.16666793823242,DRYL,CHIPPEWA FALLS,CONUS
MAIN,-2,-84.66777801513672,39.04888916015625,DTVB,CINCINNATI NORTHE,CONUS
MAIN,-2,-84.5,39.099998474121094,DTVP,CINCINNATI,CONUS
MAIN,-2,-84.5,39.43333435058594,DTWB,CINCINNATI,CONUS
MAIN,-2,-122.58333587646484,45.41666793823242,DUHW,CLACKAMAS,CONUS
MAIN,-2,-79.38333129882812,41.21666717529297,DVGK,CLARION,CONUS
MAIN,-2,120.5602798461914,15.186111450195312,DVLK,DIOSDADO MACAPAGA,STRATEGIC
MAIN,-2,-80.3499984741211,39.266666412353516,DVYP,CLARKSBURG,CONUS
MAIN,-2,-81.68305206298828,37.63083267211914,DXFX,CLEAR FORK,CONUS
MAIN,-2,-81.8550033569336,41.40944290161133,DYCS,CLEVELAND HOPKINS,CONUS
MAIN,-2,-81.69999694824219,41.5,DYCZ,CLEVELAND NAVY,CONUS
MAIN,-2,-84.88333129882812,35.150001525878906,DYDV,CLEVELAND,CONUS
MAIN,-2,-71.68333435058594,42.41666793823242,DYVS,CLINTON,CONUS
MAIN,-2,-90.3294448852539,32.336944580078125,DYWP,CLINTON,CONUS
MAIN,-2,-78.31666564941406,35.0,DYXQ,CLINTON,CONUS
MAIN,-2,-103.18333435058594,34.400001525878906,EAPD,CLOVIS,CONUS
MAIN,-2,-82.91666412353516,35.53333282470703,EAQQ,CLYDE,CONUS
MAIN,-2,-83.649169921875,32.692779541015625,EAZP,MIDDLE GEORGIA RG,CONUS
MAIN,-2,79.8499984741211,6.933333396911621,EDME,COLOMBO,STRATEGIC
MAIN,-2,-104.80000305175781,38.766666412353516,EDUG,COLORADO SPRINGS,CONUS
MAIN,-2,-104.82083129882812,38.83388900756836,EDUJ,COLORADO SPRINGS,CONUS
MAIN,-2,-74.18333435058594,40.28333282470703,EDVT,COLTS NECK,CONUS
MAIN,-2,-120.41444396972656,38.030555725097656,EDWC,COLUMBIA,CONUS
MAIN,-2,-92.33333587646484,38.96666717529297,EDYN,COLUMBIA,CONUS
MAIN,-2,-81.0,34.0,EEBS,COLUMBIA,CONUS
MAIN,-2,-84.98332977294922,32.46666717529297,EEHR,COLUMBUS,CONUS
MAIN,-2,-84.93888854980469,32.516387939453125,EEMW,COLUMBUS,CONUS
MAIN,-2,-88.44583129882812,33.64527893066406,EEPZ,COLUMBUS AFB,CONUS
MAIN,-2,-82.93333435058594,39.81666564941406,EFGH,COLUMBUS,CONUS
MAIN,-2,-83.0,39.96666717529297,EFGV,COLUMBUS,CONUS
MAIN,-2,-82.91666412353516,39.983333587646484,EFGX,COLUMBUS ARMY DEP,CONUS
MAIN,-2,-82.90555572509766,39.97638702392578,EFHH,COLUMBUS,CONUS
MAIN,-2,-118.30000305175781,33.88333511352539,EGDZ,COMPTON,CONUS
MAIN,-2,-122.05000305175781,37.983333587646484,EGNA,CONCORD,CONUS
MAIN,-2,-122.05000305175781,37.983333587646484,EGND,CONCORD,CONUS
MAIN,-2,-122.05000305175781,37.983333587646484,EGNF,CONCORD       NWS,CONUS
MAIN,-2,-121.93333435058594,37.93333435058594,EGNN,CONCORD,CONUS
MAIN,-2,-79.58333587646484,40.016666412353516,EHNP,CONNELLSVILLE,CONUS
MAIN,-2,-92.41666412353516,35.06666564941406,EJSP,CONWAY,CONUS
MAIN,-2,-124.19999694824219,43.38333511352539,EKWU,COOS BAY,CONUS
MAIN,-2,-124.16666412353516,42.16666793823242,EKWW,COOS HEAD,CONUS
MAIN,-2,-117.16666412353516,32.70000076293945,EMVX,CORONADO,CONUS
MAIN,-2,-117.16666412353516,32.66666793823242,EMVY,CORONADO SD   NPB,CONUS
MAIN,-2,-97.26667022705078,27.683332443237305,ENCB,CORPUS CHRISTI,CONUS
MAIN,-2,-97.4000015258789,27.799999237060547,ENCF,CORPUS CHRISTI,CONUS
MAIN,-2,-97.28944396972656,27.690555572509766,ENCJ,CORPUS CHRISTI,CONUS
MAIN,-2,-97.29027557373047,27.692777633666992,ENCK,CORPUS CHRISTI NA,CONUS
MAIN,-2,-97.4000015258789,27.816667556762695,ENCN,CORPUS CHRISTI NA,CONUS
MAIN,-2,-97.88166809082031,36.427223205566406,ENID,ENID,CONUS
MAIN,-2,-95.86083221435547,41.26194381713867,EPKA,COUNCIL BLUFFS,CONUS
MAIN,-2,-71.59889221191406,41.72083282470703,EQDF,COVENTRY,CONUS
MAIN,-2,-77.25,38.11666488647461,EQYH,FT A P HILL,CONUS
MAIN,-2,-86.03333282470703,39.349998474121094,ERCH,CP ATTERBURY,CONUS
MAIN,-2,-92.41666412353516,31.316667556762695,ERDH,CP BEAUREGARD,CONUS
MAIN,-2,-81.98332977294922,30.0,ERDY,CP BLANDING,CONUS
MAIN,-2,-80.05249786376953,42.135555267333984,ERIE,ERIE,CONUS
MAIN,-2,-79.71666717529297,39.45000076293945,ERUW,CP DAWSON,CONUS
MAIN,-2,-94.18333435058594,42.54999923706055,ESBW,CP DODGE,CONUS
MAIN,-2,-75.73332977294922,44.04999923706055,ESGM,FT DRUM,CONUS
MAIN,-2,-76.28971862792969,36.93722152709961,ESHH,CP ELMORE,CONUS
MAIN,-2,-70.61666870117188,41.53333282470703,ESLM,CP EDWARDS,CONUS
MAIN,-2,-84.66666412353516,44.66666793823242,ESPS,CP GRAYLING,CONUS
MAIN,-2,-77.33333587646484,34.66666793823242,ETFA,CAMP LEJEUNE,CONUS
MAIN,-2,-77.33333587646484,34.66666793823242,ETFB,CP LEJEUNE,CONUS
MAIN,-2,-90.68333435058594,44.099998474121094,ETMB,FT MCCOY,CONUS
MAIN,-2,-122.56666564941406,47.11666488647461,ETRB,CP MURRAY,CONUS
MAIN,-2,-117.38333129882812,33.31666564941406,ETVL,CP PENDLETON NAVY,CONUS
MAIN,-2,-121.9013900756836,37.73055648803711,ETVM,CP PARKS,CONUS
MAIN,-2,-117.38333129882812,33.31666564941406,ETZB,CP PENDLETON,CONUS
MAIN,-2,-117.38333129882812,33.31666564941406,ETZC,CP PENDLETON,CONUS
MAIN,-2,-83.0250015258789,41.53333282470703,EUBC,CP PERRY,CONUS
MAIN,-2,-77.93333435058594,37.04999923706055,EUDB,FT PICKETT,CONUS
MAIN,-2,-103.23332977294922,44.099998474121094,EUFG,CP RAPID,CONUS
MAIN,-2,-123.96666717529297,46.11666488647461,EUFM,CP RILEA,CONUS
MAIN,-2,-96.76667022705078,44.06666564941406,EUFN,CP RIPLEY,CONUS
MAIN,-2,-120.74361419677734,35.83222198486328,EUHB,CP ROBERTS,CONUS
MAIN,-2,-92.30000305175781,34.83333206176758,EUKB,CP ROBINSON,CONUS
MAIN,-2,-89.31666564941406,31.15833282470703,EURB,CP SHELBY,CONUS
MAIN,-2,-157.9166717529297,21.366666793823242,EUVB,CP SMITH,CONUS
MAIN,-2,-157.9166717529297,21.366666793823242,EUVH,CP SMITH      MCC,CONUS
MAIN,-2,-157.88333129882812,21.299999237060547,EUVJ,CP SMITH       BA,CONUS
MAIN,-2,-157.91416931152344,21.33333396911621,EUVK,CAMP H M SMITH,CONUS
MAIN,-2,-86.26667022705078,39.71666717529297,EWFK,CRANE,CONUS
MAIN,-2,-86.26667022705078,39.71666717529297,EWFL,CRANE         AAP,CONUS
MAIN,-2,-124.33333587646484,41.75,EWYN,CRESCENT CITY,CONUS
MAIN,-2,-94.36111450195312,41.05861282348633,EXAN,CRESTON,CONUS
MAIN,-2,-86.55000305175781,30.816667556762695,EXCN,CRESTVIEW,CONUS
MAIN,-2,-122.21666717529297,38.04999923706055,EXGM,CROCKETT,CONUS
MAIN,-2,120.2713851928711,14.79444408416748,EYBD,SUBIC BAY INTL,STRATEGIC
MAIN,-2,-85.76667022705078,32.79999923706055,EZGG,DADEVILLE,CONUS
MAIN,-2,-77.0513916015625,38.331111907958984,EZHK,DAHLGREN,CONUS
MAIN,-2,-17.433332443237305,14.683333396911621,EZMU,DAKAR,STRATEGIC
MAIN,-2,-97.03805541992188,32.89694595336914,EZSE,DALLAS FORT WORTH,CONUS
MAIN,-2,-96.78333282470703,32.28333282470703,EZTC,DALLAS,CONUS
MAIN,-2,-96.96749877929688,32.73472213745117,EZTH,MILLENNIUM DALLAS,CONUS
MAIN,-2,-96.80000305175781,32.78333282470703,EZTV,DALLAS AFIT 02,CONUS
MAIN,-2,-96.80000305175781,32.78333282470703,EZTW,DALLAS AFIT 03,CONUS
MAIN,-2,-76.0,36.83333206176758,EZXV,DAM NECK,CONUS
MAIN,-2,-117.71666717529297,33.46666717529297,FAFL,DANA POINT,CONUS
MAIN,-2,-86.39389038085938,32.30055618286133,FAKZ,MONTGOMERY RGNL,CONUS
MAIN,-2,-87.61666870117188,40.150001525878906,FAQZ,DANVILLE,CONUS
MAIN,-2,8.584722518920898,49.85333251953125,FAXN,DARMSTADT AAF,STRATEGIC
MAIN,-2,-90.57749938964844,41.52361297607422,FBDH,DAVENPORT,CONUS
MAIN,-2,-87.16694641113281,37.738887786865234,FBMV,OWENSBORO DAVIESS,CONUS
MAIN,-2,-110.883056640625,32.16638946533203,FBNV,DAVIS MONTHAN AFB,CONUS
MAIN,-2,-110.88333129882812,32.16666793823242,FBPW,DAVIS MONTHAN,CONUS
MAIN,-2,-84.19999694824219,39.75,FCHZ,DAYTON,CONUS
MAIN,-2,-84.16666412353516,39.75,FCKD,DAYTON DESC,CONUS
MAIN,-2,-81.05000305175781,29.233333587646484,FCLF,DAYTONA BEACH,CONUS
MAIN,-2,-87.0,34.58333206176758,FCXN,DECATUR,CONUS
MAIN,-2,-111.75,41.233333587646484,FDHB,DEF DEPOT OGDEN,CONUS
MAIN,-2,-83.05000305175781,40.28333282470703,FDVA,DELAWARE,CONUS
MAIN,-2,-87.41666412353516,32.46666717529297,FEDX,DEMOPOLIS,CONUS
MAIN,-2,-104.98416900634766,39.739166259765625,FEQM,DENVER,CONUS
MAIN,-2,-104.87944793701172,39.76527786254883,FERR,DENVER,CONUS
MAIN,-2,-104.67305755615234,39.86166763305664,FERX,DENVER INTL,CONUS
MAIN,-2,-93.60888671875,41.600555419921875,FFAJ,DES MOINES,CONUS
MAIN,-2,-93.66305541992188,41.53388977050781,FFAR,DES MOINES INTL,CONUS
MAIN,-2,-83.0,42.33333206176758,FFJF,DETROIT,CONUS
MAIN,-2,-82.83333587646484,42.599998474121094,FFJG,DETROIT,CONUS
MAIN,-2,-83.08333587646484,42.38333511352539,FFKG,DETROIT MET,CONUS
MAIN,-2,-69.26667022705078,45.016666412353516,FFRS,DEXTER,CONUS
MAIN,-2,-89.94999694824219,36.78333282470703,FFSQ,DEXTER,CONUS
MAIN,-2,72.46666717529297,-7.349999904632568,FGDB,DIEGO GARCIA EAST,STRATEGIC
MAIN,-2,72.4111099243164,-7.313333511352539,FGDC,DIEGO GARCIA NSF,STRATEGIC
MAIN,-2,72.40555572509766,-7.255555629730225,FGDD,DIEGO GARCIA,STRATEGIC
MAIN,-2,11.0,33.83333206176758,FGTS,DJERBA,Tunisia
MAIN,-2,10.833333015441895,33.83333206176758,FGTW,DJERBA,Tunisia
MAIN,-2,9.931111335754395,36.862220764160156,FGTZ,DJEDEIDA,Tunisia
MAIN,-2,-84.51638793945312,33.915279388427734,FGWB,DOBBINS ARB,CONUS
MAIN,-2,-84.51667022705078,33.91666793823242,FGWD,DOBBINS       ANG,CONUS
MAIN,-2,-85.3499984741211,31.183332443237305,FJMG,DOTHAN,CONUS
MAIN,-2,-85.44944763183594,31.32111167907715,FJMK,DOTHAN RGNL,CONUS
MAIN,-2,-109.5,31.350000381469727,FJPP,DOUGLAS,CONUS
MAIN,-2,-80.94916534423828,35.2136116027832,FJRP,CHARLOTTE DOUGLAS,CONUS
MAIN,-2,-75.46583557128906,39.12944412231445,FJXT,DOVER AFB,CONUS
MAIN,-2,-75.52471923828125,39.15805435180664,FJYB,DOVER,CONUS
MAIN,-2,-75.5022201538086,39.106388092041016,FKJG,DOVER,CONUS
MAIN,-2,-74.56666564941406,40.88333511352539,FKLJ,DOVER,CONUS
MAIN,-2,-74.55000305175781,40.88333511352539,FKLK,DOVER,CONUS
MAIN,-2,-68.82805633544922,44.807498931884766,FKNN,BANGOR INTL,CONUS
MAIN,-2,-111.8499984741211,40.53333282470703,FLMT,DRAPER,CONUS
MAIN,-2,-111.08333587646484,43.75,FLUP,DRIGGS,CONUS
MAIN,-2,55.266666412353516,25.25,FMAZ,DUBAI,STRATEGIC
MAIN,-2,-82.9000015258789,32.516666412353516,FMCH,DUBLIN,CONUS
MAIN,-2,-90.66444396972656,42.50055694580078,FMEN,DUBUQUE,CONUS
MAIN,-2,-77.45999908447266,38.9474983215332,FMJN,WASHINGTON DULLES,CONUS
MAIN,-2,-92.1066665649414,46.782222747802734,FMKT,DULUTH,CONUS
MAIN,-2,-92.08333587646484,46.81666564941406,FMKZ,DULUTH,CONUS
MAIN,-2,-92.19361114501953,46.84222412109375,FMLH,DULUTH INTL,CONUS
MAIN,-2,-92.0999984741211,46.766666412353516,FMLT,DULUTH,CONUS
MAIN,-2,-77.41666412353516,38.983333587646484,FMNJ,DULLES,CONUS
MAIN,-2,30.96666717529297,-29.96666717529297,FNLD,DURBAN,STRATEGIC
MAIN,-2,-78.9000015258789,36.0,FNQD,DURHAM,CONUS
MAIN,-2,-166.60000610351562,53.91666793823242,FNSH,DUTCH HARBOR,CONUS
MAIN,-2,-89.3499984741211,36.03333282470703,FNVH,DYERSBURG,CONUS
MAIN,-2,-99.8566665649414,32.4183349609375,FNWZ,DYESS AFB,CONUS
MAIN,-2,-157.959716796875,21.364999771118164,FPAA,FORD ISLAND NALF,CONUS
MAIN,-2,-84.83333587646484,42.78333282470703,FPZW,E LANSING,CONUS
MAIN,-2,-84.44999694824219,33.66666793823242,FQLT,EAST POINT,CONUS
MAIN,-2,-90.1500015258789,38.599998474121094,FQNZ,E ST LOUIS,CONUS
MAIN,-2,-72.5999984741211,41.849998474121094,FQQZ,E WINDSOR,CONUS
MAIN,-2,-74.5999984741211,40.016666412353516,FQZF,EARLE NWS,CONUS
MAIN,-2,-74.5999984741211,40.016666412353516,FQZJ,EARLE NWS,CONUS
MAIN,-2,-84.63333129882812,39.75,FRLV,EATON,CONUS
MAIN,-2,-91.5,44.79999923706055,FRPD,EAU CLAIRE,CONUS
MAIN,-2,-78.75,40.43333435058594,FRRD,EBENSBURG,CONUS
MAIN,-2,-81.93333435058594,33.78333282470703,FRYQ,EDGEFIELD,CONUS
MAIN,-2,-76.94999694824219,40.25,FSAD,EDGEMONT,CONUS
MAIN,-2,-76.28333282470703,39.38333511352539,FSCD,EDGEWOOD ARSENAL,CONUS
MAIN,-2,-88.87083435058594,44.004722595214844,FSJA,EDINGER FIELD,CONUS
MAIN,-2,-117.87916564941406,34.91805648803711,FSPM,EDWARDS AFB,CONUS
MAIN,-2,-86.52194213867188,30.648611068725586,FTEP,DUKE FLD,CONUS
MAIN,-2,-86.48332977294922,30.46666717529297,FTET,EGLIN AFB,CONUS
MAIN,-2,-86.68916320800781,30.427778244018555,FTEV,HURLBURT FLD,CONUS
MAIN,-2,-86.52527618408203,30.483333587646484,FTFA,EGLIN AFB,CONUS
MAIN,-2,-147.1013946533203,64.66555786132812,FTQW,EIELSON AFB,CONUS
MAIN,-2,10.233333587646484,36.849998474121094,FTXW,EL AOUINA,Tunisia
MAIN,-2,9.254166603088379,31.703887939453125,FTZH,EL BORMA,Tunisia
MAIN,-2,8.433333396911621,36.900001525878906,FUPD,EL KALA,Tunisia
MAIN,-2,10.691666603088379,34.71638870239258,FUQN,THYNA,Tunisia
MAIN,-2,-106.46666717529297,31.766666412353516,FUTD,EL PASO,CONUS
MAIN,-2,-106.37638854980469,31.807222366333008,FUTL,EL PASO INTL,CONUS
MAIN,-2,-117.7300033569336,33.67333221435547,FUZD,EL TORO MCAS,CONUS
MAIN,-2,-74.18333435058594,40.650001525878906,FVMT,ELIZABETHPORT,CONUS
MAIN,-2,-115.78333282470703,40.81666564941406,FWEV,ELKO,CONUS
MAIN,-2,-76.80000305175781,39.21666717529297,FWHZ,ELLICOTT CITY,CONUS
MAIN,-2,-95.15888977050781,29.607221603393555,FWJH,ELLINGTON,CONUS
MAIN,-2,-103.1036148071289,44.14500045776367,FXBM,ELLSWORTH AFB,CONUS
MAIN,-2,-149.89999389648438,61.233333587646484,FXQZ,ELMENDORF,CONUS
MAIN,-2,-149.806396484375,61.25138854980469,FXSB,JB ELMENDORF-RICH,CONUS
MAIN,-2,-149.8000030517578,61.25,FXSK,ELMENDORF,CONUS
MAIN,-2,-118.46666717529297,34.16666793823242,GAFH,ENCINO,CONUS
MAIN,-2,-92.54861450195312,31.327499389648438,GAMH,ALEXANDRIA INTL,CONUS
MAIN,-2,-74.00611114501953,41.942779541015625,GATE,KINGSTON G1,CONUS
MAIN,-2,-119.55000305175781,47.31666564941406,GCCW,EPHRATA,CONUS
MAIN,-2,-80.03333282470703,42.13333511352539,GCRR,ERIE,CONUS
MAIN,-2,-92.29582977294922,31.395000457763672,GEQZ,ESLER RGNL,CONUS
MAIN,-2,-123.06666564941406,44.04999923706055,GFPP,EUGENE,CONUS
MAIN,-2,-124.16666412353516,40.81666564941406,GFVP,EUREKA,CONUS
MAIN,-2,-87.86666870117188,32.83333206176758,GGAD,EUTAW,CONUS
MAIN,-2,-87.55583190917969,37.97472381591797,GGFX,EVANSVILLE,CONUS
MAIN,-2,-122.19999694824219,47.983333587646484,GGNF,EVERETT,CONUS
MAIN,-2,-122.21666717529297,48.0,GGNJ,EVERETT,CONUS
MAIN,-2,-104.86722564697266,41.13333511352539,GHLN,FRANCIS E WARREN,CONUS
MAIN,-2,-104.83333587646484,41.20000076293945,GHZO,F E WARREN AFB,CONUS
MAIN,-2,-147.71665954589844,64.8499984741211,GJFV,FAIRBANKS,CONUS
MAIN,-2,-147.85638427734375,64.81500244140625,GJFZ,FAIRBANKS INTL,CONUS
MAIN,-2,-117.65583038330078,47.6150016784668,GJKZ,FAIRCHILD AFB,CONUS
MAIN,-2,-73.26416778564453,41.141109466552734,GKLX,FAIRFIELD,CONUS
MAIN,-2,-1.7899999618530273,51.68333435058594,GKVB,FAIRFORD,STRATEGIC
MAIN,-2,-80.19999694824219,39.5,GKZK,FAIRMONT,CONUS
MAIN,-2,-104.83333587646484,38.83333206176758,GLEN,SCHRIEVER AFB,CONUS
MAIN,-2,-118.6986083984375,39.41777801513672,GLRZ,FALLON NAS,CONUS
MAIN,-2,-77.18333435058594,38.900001525878906,GLTD,FALLS CHURCH,CONUS
MAIN,-2,-117.25,33.38333511352539,GLZN,FALLBROOK,CONUS
MAIN,-2,-73.75,40.599998474121094,GMGG,FAR ROCKAWAY,CONUS
MAIN,-2,-80.5,41.21666717529297,GNMJ,FARRELL,CONUS
MAIN,-2,-79.88333129882812,35.04999923706055,GNYJ,FAYETTEVILLE,CONUS
MAIN,-2,1.3166667222976685,51.95000076293945,GPEN,FELIXSTOWE,STRATEGIC
MAIN,-2,-76.60861206054688,37.13249969482422,GPGK,FELKER AAF,CONUS
MAIN,-2,-72.04528045654297,41.33000183105469,GRAQ,GROTON NEW LONDON,CONUS
MAIN,-2,-72.08805847167969,41.398887634277344,GRBE,GROTON,CONUS
MAIN,-2,-104.83333587646484,39.733333587646484,GRRY,FITZSIMONS GENRL,CONUS
MAIN,-2,-79.73332977294922,34.20000076293945,GTVP,FLORENCE,CONUS
MAIN,-2,-73.83333587646484,40.71666717529297,GUDX,FLUSHING,CONUS
MAIN,-2,-75.30000305175781,39.88333511352539,GUHN,FOLSOM,CONUS
MAIN,-2,-95.66361236572266,38.95083236694336,GUQE,FORBES FLD,CONUS
MAIN,-2,-157.96665954589844,21.366666793823242,GUYP,FORD ISLAND,CONUS
MAIN,-2,-157.96665954589844,21.366666793823242,GUYU,JBPH-H FORD ISLAN,CONUS
MAIN,-2,-87.80000305175781,41.86666488647461,GVDN,FOREST PARK,CONUS
MAIN,-2,-84.33333587646484,33.63333511352539,GVEZ,FOREST PARK,CONUS
MAIN,-2,-87.80000305175781,41.86666488647461,GVGZ,FOREST PARK,CONUS
MAIN,-2,-92.14083099365234,37.74166488647461,GWAW,WAYNESVILLE ST RO,CONUS
MAIN,-2,-87.31805419921875,30.35333251953125,GWDD,PENSACOLA NAS,CONUS
MAIN,-2,4.866666793823242,43.400001525878906,GWZP,FOS,STRATEGIC
MAIN,-2,-117.6500015258789,47.63333511352539,GXTN,FOUR LAKES,CONUS
MAIN,-2,-84.83333587646484,38.21666717529297,GYPS,FRANKFORT,CONUS
MAIN,-2,8.570555686950684,50.03333282470703,GYRZ,FRANKFURT MAIN,STRATEGIC
MAIN,-2,-86.1361083984375,30.498056411743164,HAAZ,FREEPORT,CONUS
MAIN,-2,-89.61666870117188,42.29999923706055,HABZ,FREEPORT,CONUS
MAIN,-2,-95.4000015258789,29.0,HAGC,FREEPORT,CONUS
MAIN,-2,-119.71861267089844,36.776390075683594,HAWR,FRESNO YOSEMITE I,CONUS
MAIN,-2,-119.83333587646484,36.78333282470703,HAWS,FRESNO,CONUS
MAIN,-2,28.289722442626953,-25.474166870117188,HAYS,FREEWAY,STRATEGIC
MAIN,-2,-119.71360778808594,36.77111053466797,HAYW,FRESNO IAP,CONUS
MAIN,-2,-76.6683349609375,39.17527770996094,HBFB,BALTIMORE WASHING,CONUS
MAIN,-2,-77.13333129882812,38.68333435058594,HCHL,FT BELVOIR,CONUS
MAIN,-2,-85.98332977294922,39.849998474121094,HCKL,FT BEN HARRISON,CONUS
MAIN,-2,-84.88333129882812,32.38333511352539,HCML,FT BENNING,CONUS
MAIN,-2,-106.41666412353516,31.799999237060547,HCRL,FT BLISS,CONUS
MAIN,-2,-123.81666564941406,39.45000076293945,HCTG,FT BRAGG,CONUS
MAIN,-2,-78.98332977294922,35.13333511352539,HCTL,FT BRAGG,CONUS
MAIN,-2,-79.0,35.13333511352539,HCTM,FT BRAGG,CONUS
MAIN,-2,-87.48332977294922,36.66666793823242,HDBL,FT CAMPBELL,CONUS
MAIN,-2,-104.76667022705078,38.68333435058594,HDDL,FT CARSON,CONUS
MAIN,-2,-94.28333282470703,35.29999923706055,HDFL,FT CHAFFEE,CONUS
MAIN,-2,-86.5683364868164,31.983888626098633,HEDM,FT DEPOSIT,CONUS
MAIN,-2,-86.5999984741211,31.96666717529297,HEDR,FT DEPOSIT,CONUS
MAIN,-2,-157.85000610351562,21.28333282470703,HEFA,FT DERUSSY,CONUS
MAIN,-2,-93.58333587646484,41.58333206176758,HEFE,FT DES MOINES,CONUS
MAIN,-2,-77.3499984741211,39.43333435058594,HEFL,FT DETRICK,CONUS
MAIN,-2,-71.56666564941406,42.53333282470703,HEHL,FT DEVENS,CONUS
MAIN,-2,-74.86666870117188,40.016666412353516,HEKP,FT DIX,CONUS
MAIN,-2,-74.63333129882812,40.03333282470703,HEKQ,FT DIX,CONUS
MAIN,-2,-94.16777801513672,42.497501373291016,HEMP,FT DODGE,CONUS
MAIN,-2,-94.16666412353516,42.516666412353516,HEMT,FT DODGE,CONUS
MAIN,-2,-111.83333587646484,40.766666412353516,HEPT,FT DOUGLAS,CONUS
MAIN,-2,-76.58333587646484,37.150001525878906,HERT,FT EUSTIS,CONUS
MAIN,-2,-76.71666717529297,39.099998474121094,HEZW,FT GEORGE MEADE,CONUS
MAIN,-2,-82.13333129882812,33.41666793823242,HFDZ,FT GORDON,CONUS
MAIN,-2,-74.03333282470703,40.58333206176758,HFHZ,FT HAMILTON,CONUS
MAIN,-2,-82.98332977294922,39.983333587646484,HFMZ,FT HAYES,CONUS
MAIN,-2,-97.76667022705078,31.133333206176758,HFTZ,FT HOOD,CONUS
MAIN,-2,-110.33333587646484,31.549999237060547,HFVZ,FT HUACHUCA,CONUS
MAIN,-2,-116.58333587646484,35.38333511352539,HFXZ,FT IRWIN,CONUS
MAIN,-2,-147.5833282470703,64.83333587646484,HFZY,FT WAINWRIGHT AAF,CONUS
MAIN,-2,-147.5833282470703,64.83333587646484,HFZZ,FT WAINWRIGHT,CONUS
MAIN,-2,-80.93333435058594,34.04999923706055,HGBZ,FT JACKSON,CONUS
MAIN,-2,-85.96666717529297,37.91666793823242,HGFW,FT KNOX,CONUS
MAIN,-2,-85.98332977294922,37.900001525878906,HGFZ,FT KNOX,CONUS
MAIN,-2,-122.4000015258789,47.650001525878906,HGLC,FT LAWTON,CONUS
MAIN,-2,-94.91666412353516,39.349998474121094,HGNC,FT LEAVENWORTH,CONUS
MAIN,-2,-77.38333129882812,37.21666717529297,HGQC,FT LEE,CONUS
MAIN,-2,-77.33333587646484,37.21666717529297,HGQH,FT LEE,CONUS
MAIN,-2,-92.11666870117188,37.733333587646484,HGSH,FT LEONARD WOOD,CONUS
MAIN,-2,-122.5999984741211,47.08333206176758,HGUH,JBLM LEWIS,CONUS
MAIN,-2,-81.96722412109375,29.364721298217773,HHFD,FT MCCOY,CONUS
MAIN,-2,-76.76000213623047,39.670833587646484,HHHC,FT MEADE,CONUS
MAIN,-2,-81.81666564941406,27.71666717529297,HHHD,FT MEADE,CONUS
MAIN,-2,-85.76667022705078,33.70000076293945,HHJL,FT MCCLELLAN,CONUS
MAIN,-2,-103.46666717529297,44.41666793823242,HHKD,FT MEADE,CONUS
MAIN,-2,-77.06666564941406,38.86666488647461,HHNL,FT MCNAIR,CONUS
MAIN,-2,-84.41666412353516,33.70000076293945,HHQL,FT MCPHERSON,CONUS
MAIN,-2,-74.05000305175781,40.29999923706055,HHYL,FT MONMOUTH,CONUS
MAIN,-2,-77.16666412353516,38.91666793823242,HJCQ,FT MYER,CONUS
MAIN,-2,-121.80833435058594,36.65833282470703,HJMC,FT ORD,CONUS
MAIN,-2,-80.33333587646484,27.46666717529297,HJTH,FT PIERCE,CONUS
MAIN,-2,-80.33333587646484,27.46666717529297,HJTL,FORT PIERCE,CONUS
MAIN,-2,-81.66666412353516,31.83333396911621,HJUT,FT STEWART,CONUS
MAIN,-2,-93.18333435058594,31.03333282470703,HJVH,FT POLK,CONUS
MAIN,-2,-93.19999694824219,31.066667556762695,HJVJ,FT POLK,CONUS
MAIN,-2,-149.75,61.25,HJZH,FT RICHARDSON,CONUS
MAIN,-2,-149.78334045410156,61.25,HJZJ,FT RICHARDSON,CONUS
MAIN,-2,-96.81666564941406,39.16666793823242,HKBN,FT RILEY,CONUS
MAIN,-2,-117.23332977294922,32.68333435058594,HKEN,FT ROSECRANS,CONUS
MAIN,-2,-85.73332977294922,31.316667556762695,HKFN,FT RUCKER,CONUS
MAIN,-2,-157.81666564941406,21.266666412353516,HKGN,FT RUGER,CONUS
MAIN,-2,-98.44999694824219,29.450000762939453,HKHN,FT SAM HOUSTON,CONUS
MAIN,-2,-157.88333129882812,21.299999237060547,HKJN,FT SHAFTER,CONUS
MAIN,-2,-87.80000305175781,42.21666717529297,HKLN,FT SHERIDAN,CONUS
MAIN,-2,-98.4000015258789,34.650001525878906,HKNN,FT SILL,CONUS
MAIN,-2,-94.44999694824219,35.36666488647461,HKRV,FT SMITH,CONUS
MAIN,-2,-94.36750030517578,35.336666107177734,HKRZ,FORT SMITH RGNL,CONUS
MAIN,-2,-93.19999694824219,44.900001525878906,HKSZ,FT SNELLING,CONUS
MAIN,-2,-81.5999984741211,31.850000381469727,HKUZ,FT STEWART,CONUS
MAIN,-2,-76.03333282470703,36.93333435058594,HKVZ,FT STORY,CONUS
MAIN,-2,-84.4000015258789,39.06666564941406,HKXZ,FT THOMAS,CONUS
MAIN,-2,-73.91666412353516,40.54999923706055,HKYZ,FT TILDEN,CONUS
MAIN,-2,-73.76750183105469,40.78388977050781,HKZY,FLUSHING,CONUS
MAIN,-2,-73.76667022705078,40.78333282470703,HKZZ,FT TOTTEN,CONUS
MAIN,-2,-83.88333129882812,32.56666564941406,HLCC,FT VALLEY,CONUS
MAIN,-2,-74.05000305175781,40.58333206176758,HLEC,FT WADSWORTH,CONUS
MAIN,-2,-147.5833282470703,64.83333587646484,HLED,FT WAINWRIGHT,CONUS
MAIN,-2,-85.12889099121094,41.13055419921875,HLLL,FT WAYNE,CONUS
MAIN,-2,-97.30000305175781,32.75,HMAZ,FT WORTH,CONUS
MAIN,-2,-97.33333587646484,32.75,HMBA,FT WORTH,CONUS
MAIN,-2,-97.3638916015625,32.78888702392578,HMBP,FT WORTH,CONUS
MAIN,-2,56.29999923706055,25.08333396911621,HMGB,FUJAIRAH,STRATEGIC
MAIN,-2,-91.94999694824219,38.83333206176758,HMZW,FULTON,CONUS
MAIN,-2,-95.6191635131836,34.23416519165039,HNRN,ANTLERS,CONUS
MAIN,-2,9.919166564941406,33.733333587646484,HNTK,MATMATA,Tunisia
MAIN,-2,10.116666793823242,33.900001525878906,HNTM,GABES,Tunisia
MAIN,-2,10.116666793823242,33.849998474121094,HNTS,GABES,Tunisia
MAIN,-2,8.828055381774902,34.426387786865234,HPBF,GAFSA,Tunisia
MAIN,-2,-82.33333587646484,29.66666603088379,HPKT,GAINESVILLE,CONUS
MAIN,-2,-84.58333587646484,34.29999923706055,HPMW,GAINESVILLE,CONUS
MAIN,-2,-94.80000305175781,29.299999237060547,HQLH,GALVESTON,CONUS
MAIN,-2,-94.80000305175781,29.28333282470703,HQLL,GALVESTON,CONUS
MAIN,-2,-100.87222290039062,37.9716682434082,HREQ,GARDEN CITY,CONUS
MAIN,-2,-73.71666717529297,40.70000076293945,HRLU,GARDEN CITY,CONUS
MAIN,-2,-73.71666717529297,40.70000076293945,HRNV,GARDEN CITY,CONUS
MAIN,-2,-96.61666870117188,32.91666793823242,HSKD,GARLAND,CONUS
MAIN,-2,-87.34638977050781,41.59333419799805,HSUG,GARY,CONUS
MAIN,-2,-81.19999694824219,35.233333587646484,HSWP,GASTONIA,CONUS
MAIN,-2,-82.58333587646484,36.599998474121094,HSYA,GATE CITY,CONUS
MAIN,-2,-87.89722442626953,42.950279235839844,HTUV,GEN B MITCHELL,CONUS
MAIN,-2,-87.89694213867188,42.94694519042969,HTUX,GENERAL MITCHELL,CONUS
MAIN,-2,8.833333015441895,44.41666793823242,HUPR,GENOVA,STRATEGIC
MAIN,-2,-117.383056640625,34.59749984741211,HUUA,SOUTHERN CALIFORN,CONUS
MAIN,-2,-75.38583374023438,38.689998626708984,HVWA,GEORGETOWN,CONUS
MAIN,-2,-79.30000305175781,33.38333511352539,HVZP,GEORGETOWN,CONUS
MAIN,-2,-112.72000122070312,32.88750076293945,HXCZ,GILA BEND AF AUX,CONUS
MAIN,-2,-85.91666412353516,37.0,HYRF,GLASGOW,CONUS
MAIN,-2,-81.70055389404297,30.20833396911621,JAAK,JACKSONVILLE,CONUS
MAIN,-2,-73.66666412353516,43.29999923706055,JADW,GLENS FALLS,CONUS
MAIN,-2,-87.81999969482422,42.09055709838867,JAFZ,CHICAGO CGAS,CONUS
MAIN,-2,-77.96499633789062,35.46055603027344,JBUU,WAYNE EXECUTIVE J,CONUS
MAIN,-2,-100.40389251708984,31.43166732788086,JCGU,GOODFELLOW AFB,CONUS
MAIN,-2,10.777222633361816,33.87555694580078,JEAH,DJERBA,Tunisia
MAIN,-2,-116.23332977294922,43.56666564941406,JEGW,GOWEN FIELD,CONUS
MAIN,-2,-97.40110778808594,47.96111297607422,JFSD,GRAND FORKS AFB,CONUS
MAIN,-2,-108.55000305175781,39.06388854980469,JGGZ,GRAND JUNCTION,CONUS
MAIN,-2,-85.69999694824219,43.0,JGMH,GRAND RAPIDS,CONUS
MAIN,-2,-78.88027954101562,34.991111755371094,JHPM,FAYETTEVILLE RGNL,CONUS
MAIN,-2,-107.90194702148438,35.16722106933594,JHVQ,GRANTS MILAN MUNI,CONUS
MAIN,-2,0.38333332538604736,51.45000076293945,JJRP,GRAVESEND,STRATEGIC
MAIN,-2,-111.30000305175781,47.516666412353516,JKSB,GREAT FALLS,CONUS
MAIN,-2,-111.37055206298828,47.4827766418457,JKSE,GREAT FALLS INTL,CONUS
MAIN,-2,-87.83333587646484,42.29999923706055,JKWE,GREAT LAKES,CONUS
MAIN,-2,-87.83333587646484,42.29999923706055,JKWF,GREAT LAKES NAVY,CONUS
MAIN,-2,-87.83333587646484,42.29999923706055,JKWG,GREAT LAKES,CONUS
MAIN,-2,-87.83333587646484,42.29999923706055,JKWP,GREAT LAKES TNG,CONUS
MAIN,-2,-89.6933364868164,40.66416549682617,JLQN,GENERAL DOWNING P,CONUS
MAIN,-2,-79.7750015258789,40.45277786254883,JLSN,PITTSBURGH MONROE,CONUS
MAIN,-2,-80.23278045654297,40.491390228271484,JLSS,PITTSBURGH INTL,CONUS
MAIN,-2,-75.6066665649414,39.678611755371094,JLWS,NEW CASTLE,CONUS
MAIN,-2,-88.01667022705078,44.516666412353516,JMCZ,GREEN BAY,CONUS
MAIN,-2,-87.56666564941406,32.68333435058594,JNHL,GREENSBORO,CONUS
MAIN,-2,-79.83333587646484,36.04999923706055,JNHQ,GREENSBORO,CONUS
MAIN,-2,-79.56666564941406,40.28333282470703,JNPY,GREENSBURG,CONUS
MAIN,-2,-77.38333129882812,35.599998474121094,JPJE,GREENVILLE,CONUS
MAIN,-2,-82.41666412353516,34.86666488647461,JPNJ,GREENVILLE,CONUS
MAIN,-2,-82.3499984741211,34.84805679321289,JPNN,GREENVILLE DOWNTO,CONUS
MAIN,-2,-82.21888732910156,34.89555740356445,JPPK,GREENVILLE SPARTA,CONUS
MAIN,-2,-82.16666412353516,34.18333435058594,JPXG,GREENWOOD,CONUS
MAIN,-2,-82.21666717529297,34.95000076293945,JQCS,GREER,CONUS
MAIN,-2,-71.43583679199219,42.932777404785156,JQMA,MANCHESTER,CONUS
MAIN,-2,-75.40694427490234,43.233890533447266,JREZ,GRIFFISS INTL,CONUS
MAIN,-2,-72.07888793945312,41.349998474121094,JRZT,GROTON,CONUS
MAIN,-2,-72.04666900634766,41.32833480834961,JRZU,GROTON,CONUS
MAIN,-2,144.9277801513672,13.58055591583252,JSSN,GUAM PORT,STRATEGIC
MAIN,-2,-89.13333129882812,30.350000381469727,JTUW,GULFPORT,CONUS
MAIN,-2,-89.09333038330078,30.36777687072754,JTUX,GULFPORT,CONUS
MAIN,-2,-89.06999969482422,30.407222747802734,JTVE,GULFPORT BILOXI I,CONUS
MAIN,-2,-89.08333587646484,30.350000381469727,JTVG,GULFPORT      CBC,CONUS
MAIN,-2,-89.08333587646484,30.350000381469727,JTVH,GULFPORT,CONUS
MAIN,-2,-86.08694458007812,33.973609924316406,JUBJ,MAXWELL GUNTER AF,CONUS
MAIN,-2,-122.75694274902344,48.031944274902344,JVZQ,HADLOCK,CONUS
MAIN,-2,35.03333282470703,32.79999923706055,JWJY,HAIFA,STRATEGIC
MAIN,-2,130.39999389648438,33.599998474121094,JWTD,HAKATA,STRATEGIC
MAIN,-2,-63.58333206176758,44.650001525878906,JXKM,HALIFAX,STRATEGIC
MAIN,-2,-87.62916564941406,34.20833206176758,JXPJ,HALL,CONUS
MAIN,-2,9.949999809265137,53.53333282470703,JYPN,HAMBURG,STRATEGIC
MAIN,-2,-87.98332977294922,34.13333511352539,JYVJ,HAMILTON,CONUS
MAIN,-2,-84.5999984741211,39.41666793823242,JZQS,HAMILTON,CONUS
MAIN,-2,-119.66666412353516,47.04999923706055,JZSU,MCCHORD,CONUS
MAIN,-2,-90.41666412353516,30.516666412353516,KAFF,HAMMOND,CONUS
MAIN,-2,-76.10639190673828,43.11111068725586,KBHT,SYRACUSE HANCOCK,CONUS
MAIN,-2,-97.71666717529297,26.200000762939453,KDFD,HARLINGEN,CONUS
MAIN,-2,-83.63805389404297,33.526390075683594,KEAQ,KENNEDY INTRANATI,CONUS
MAIN,-2,-75.57805633544922,38.92361068725586,KEFP,HARRINGTON,CONUS
MAIN,-2,-76.83333587646484,40.266666412353516,KEMJ,HARRISBURG,CONUS
MAIN,-2,-93.1500015258789,36.266666412353516,KERD,HARRISON,CONUS
MAIN,-2,-72.68555450439453,41.76361083984375,KFDS,HARTFORD,CONUS
MAIN,-2,-88.36666870117188,43.31666564941406,KFKV,HARTFORD,CONUS
MAIN,-2,-89.31666564941406,31.33333396911621,KGLC,HATTIESBURG,CONUS
MAIN,-2,-157.0,21.0,KHFQ,HAWAII,CONUS
MAIN,-2,-118.63249969482422,38.54499816894531,KHSH,HAWTHORNE INDUSTR,CONUS
MAIN,-2,-118.63333129882812,38.54999923706055,KHST,HAWTHORNE AAP,CONUS
MAIN,-2,-99.32638549804688,38.87916564941406,KJER,HAYS,CONUS
MAIN,-2,-122.08333587646484,37.66666793823242,KJGR,HAYWARD,CONUS
MAIN,-2,-122.12166595458984,37.65888977050781,KJGW,HAYWARD EXECUTIVE,CONUS
MAIN,-2,-96.81583404541016,46.920555114746094,KKGA,HECTOR INTL,CONUS
MAIN,-2,-73.61666870117188,40.70000076293945,KLKD,HEMPSTEAD,CONUS
MAIN,-2,-115.0,36.016666412353516,KLSD,HENDERSON,CONUS
MAIN,-2,-88.6500015258789,35.43333435058594,KLUK,HENDERSON,CONUS
MAIN,-2,-98.4022216796875,34.649723052978516,KLZU,HENRY POST AAF,CONUS
MAIN,-2,-80.28333282470703,25.816667556762695,KNJD,HIALEAH,CONUS
MAIN,-2,-157.92666625976562,21.316110610961914,KNMD,JBPH-H HICKAM FLD,CONUS
MAIN,-2,-157.95416259765625,21.337499618530273,KNMK,DMA DPO HICKAM,CONUS
MAIN,-2,-111.97305297851562,41.1238899230957,KRSM,HILL AFB,CONUS
MAIN,-2,-111.9808349609375,41.106388092041016,KRSQ,HILL AFB,CONUS
MAIN,-2,-97.06666564941406,47.41666793823242,KSRM,HILLSBORO,CONUS
MAIN,-2,-87.25499725341797,41.532222747802734,KUHK,HOBART,CONUS
MAIN,-2,-106.10916900634766,32.85222244262695,KWRD,HOLLOMAN AFB,CONUS
MAIN,-2,-93.0602798461914,44.934722900390625,KXPD,ST PAUL DOWNTOWN,CONUS
MAIN,-2,-80.3838882446289,25.488056182861328,KYJL,HOMESTEAD AFB,CONUS
MAIN,-2,114.13333129882812,22.233333587646484,KZPH,HONG KONG ABERDEE,STRATEGIC
MAIN,-2,-157.9499969482422,21.316667556762695,KZTR,HONOLULU,CONUS
MAIN,-2,-157.92666625976562,21.316110610961914,KZTV,HONOLULU INTL,CONUS
MAIN,-2,-157.9499969482422,21.33333396911621,KZTZ,HONOLULU,CONUS
MAIN,-2,-97.71444702148438,31.13861083984375,KZVP,HOOD AAF,CONUS
MAIN,-2,-95.36666870117188,29.75,LCMM,HOUSTON,CONUS
MAIN,-2,-95.41666412353516,29.75,LCMT,HOUSTON,CONUS
MAIN,-2,-87.30750274658203,39.45138931274414,LDXF,TERRE HAUTE INTL,CONUS
MAIN,-2,-88.88333129882812,35.79999923706055,LDXZ,HUMBOLDT,CONUS
MAIN,-2,-119.88999938964844,36.26250076293945,LEAS,LEMOORE,CONUS
MAIN,-2,-81.14611053466797,32.00972366333008,LEKF,HUNTER,CONUS
MAIN,-2,-81.14611053466797,32.0099983215332,LEXG,HUNTER AAF,CONUS
MAIN,-2,-121.23332977294922,36.0,LEXN,FT HUNTER LIGGETT,CONUS
MAIN,-2,-82.41666412353516,38.41666793823242,LFMS,HUNTINGTON,CONUS
MAIN,-2,-86.58333587646484,34.70000076293945,LFSF,HUNTSVILLE,CONUS
MAIN,-2,-86.7750015258789,34.63722229003906,LFSU,HUNTSVILLE INTL C,CONUS
MAIN,-2,-90.19999694824219,46.45000076293945,LFWC,HURLEY,CONUS
MAIN,-2,-98.71749877929688,44.35166549682617,LGAA,HURON,CONUS
MAIN,-2,-97.929443359375,38.06083297729492,LGJZ,HUTCHINSON,CONUS
MAIN,-2,-70.26667022705078,41.650001525878906,LGSL,HYANNIS,CONUS
MAIN,-2,-73.77889251708984,40.63972091674805,LHNZ,JOHN F KENNEDY IN,CONUS
MAIN,-2,-95.70805358886719,37.22416687011719,LKCM,INDEPENDENCE,CONUS
MAIN,-2,-94.44999694824219,39.06666564941406,LKEV,INDEPENDENCE,CONUS
MAIN,-2,-76.58333587646484,40.43333435058594,LKLW,FT INDIANTOWN GAP,CONUS
MAIN,-2,-122.75,48.07500076293945,LKPE,INDIAN ISLAND,CONUS
MAIN,-2,-122.69999694824219,48.08333206176758,LKPF,INDIAN ISLAND ORD,CONUS
MAIN,-2,-115.67333221435547,36.587223052978516,LKTC,CREECH AFB,CONUS
MAIN,-2,-86.29472351074219,39.71722412109375,LLFN,INDIANAPOLIS INTL,CONUS
MAIN,-2,-86.1580581665039,39.768333435058594,LLFQ,INDIANAPOLIS,CONUS
MAIN,-2,-76.63333129882812,40.36666488647461,LLLB,FT INDIANTOWN GAP,CONUS
MAIN,-2,-97.23332977294922,27.850000381469727,LLTY,INGLESIDE,CONUS
MAIN,-2,-97.20194244384766,27.86916732788086,LLXC,INGLESIDE,CONUS
MAIN,-2,-83.26750183105469,42.31888961791992,LMDV,INKSTER,CONUS
MAIN,-2,-93.26667022705078,42.53333282470703,LNLM,IOWA AR AMMO PLT,CONUS
MAIN,-2,-118.08694458007812,33.83000183105469,LPAS,LONG BEACH,CONUS
MAIN,-2,-117.82333374023438,33.66999816894531,LPNH,IRVINE,CONUS
MAIN,-2,27.129722595214844,38.42388916015625,LRNC,IZMIR,STRATEGIC
MAIN,-2,-83.96666717529297,33.29999923706055,LRUD,JACKSON,CONUS
MAIN,-2,-90.07583618164062,32.31111145019531,LRXQ,JACKSON EVERS INT,CONUS
MAIN,-2,-90.18333435058594,32.33333206176758,LRXY,JACKSON,CONUS
MAIN,-2,-88.83333587646484,35.61666488647461,LSAU,JACKSON,CONUS
MAIN,-2,-90.0,29.950000762939453,LSBC,JACKSON BARRACKS,CONUS
MAIN,-2,-81.66666412353516,30.33333396911621,LSEK,JACKSONVILLE,CONUS
MAIN,-2,-81.66666412353516,30.350000381469727,LSFY,JACKSONVILLE,CONUS
MAIN,-2,-81.68777465820312,30.49416732788086,LSGA,JACKSONVILLE INTL,CONUS
MAIN,-2,-81.68333435058594,30.233333587646484,LSGB,JACKSONVILLE,CONUS
MAIN,-2,-81.67500305175781,30.233888626098633,LSGE,JACKSONVILLE NAS,CONUS
MAIN,-2,-81.68333435058594,30.5,LSGG,JACKSONVILLE,CONUS
MAIN,-2,-81.66666412353516,30.33333396911621,LSGM,JACKSONVILLE,CONUS
MAIN,-2,-81.23332977294922,30.350000381469727,LSLG,JACKSONVILLE JCT,CONUS
MAIN,-2,-87.25,33.78333282470703,LTRC,JASPER,CONUS
MAIN,-2,-94.3772201538086,42.01527786254883,LTUJ,JEFFERSON,CONUS
MAIN,-2,-90.25,38.66666793823242,LTUY,JEFFERSON BRK,CONUS
MAIN,-2,-90.28194427490234,38.508056640625,LTVJ,JEFFERSON BARRACK,CONUS
MAIN,-2,-81.47305297851562,36.43111038208008,LTVK,JEFFERSON,CONUS
MAIN,-2,-92.16666412353516,38.54999923706055,LTWH,JEFFERSON CITY,CONUS
MAIN,-2,-94.02083587646484,29.950834274291992,LTYB,JACK BROOKS RGNL,CONUS
MAIN,-2,-85.73722076416016,38.27750015258789,LUCN,JEFFERSONVILLE,CONUS
MAIN,-2,-74.06666564941406,40.733333587646484,LUNH,JERSEY CITY,CONUS
MAIN,-2,39.20000076293945,21.5,LUTP,JEDDAH,STRATEGIC
MAIN,-2,-96.741943359375,43.58194351196289,LUXC,JOE FOSS FLD,CONUS
MAIN,-2,-80.00333404541016,32.70111083984375,LVDB,CHARLESTON EXECUT,CONUS
MAIN,-2,-82.38333129882812,36.33333206176758,LVGY,JOHNSON CITY,CONUS
MAIN,-2,-93.69750213623047,41.67305374145508,LVMC,JOHNSTON,CONUS
MAIN,-2,-78.91666412353516,40.33333206176758,LVQT,JOHNSTOWN,CONUS
MAIN,-2,-78.83472442626953,40.315555572509766,LVQX,JOHN MURTHA JOHNS,CONUS
MAIN,-2,-75.06610870361328,40.19916534423828,LVSH,WARMINSTER NAWC,CONUS
MAIN,-2,-87.75,41.78333282470703,LVTN,JOLIET,CONUS
MAIN,-2,-90.69999694824219,35.81666564941406,LVXY,JONESBORO,CONUS
MAIN,-2,-94.51667022705078,37.06666564941406,LWAT,JOPLIN,CONUS
MAIN,-2,49.66666793823242,27.0,LWEV,JUBAIL PORT,STRATEGIC
MAIN,-2,-89.76667022705078,44.58333206176758,LWLZ,JUNCTION CITY,CONUS
MAIN,-2,-87.39555358886719,46.35361099243164,LWRC,K I SAWYER AFB,CONUS
MAIN,-2,127.76777648925781,26.35555648803711,LXEZ,KADENA AB,STRATEGIC
MAIN,-2,-158.2916717529297,21.575000762939453,LXHY,KAENA POINT,CONUS
MAIN,-2,70.21666717529297,23.016666412353516,LYAP,KANDLA,STRATEGIC
MAIN,-2,-157.76805114746094,21.4505558013916,LYAX,KANEOHE BAY MCAF,CONUS
MAIN,-2,-157.76666259765625,21.450000762939453,LYBC,KANEOHE,CONUS
MAIN,-2,-157.76666259765625,21.483333587646484,LYBD,KANEOHE MCAS,CONUS
MAIN,-2,-81.59305572509766,38.37305450439453,LYBH,YEAGER,CONUS
MAIN,-2,-94.6272201538086,39.114166259765625,LYLC,KANSAS CITY,CONUS
MAIN,-2,-94.71666717529297,39.03333282470703,LYNH,KANSAS CITY,CONUS
MAIN,-2,-94.59111022949219,39.27944564819336,LYNK,KANSAS CITY,CONUS
MAIN,-2,-94.7138900756836,39.29750061035156,LYNM,KANSAS CITY INTL,CONUS
MAIN,-2,-94.60138702392578,39.08333206176758,LYNS,KANSAS CTY REC CT,CONUS
MAIN,-2,120.36666870117188,22.600000381469727,LYRV,KAOHSIUNG TSOYING,STRATEGIC
MAIN,-2,-157.86666870117188,21.350000381469727,LYRW,KAPALAMA,CONUS
MAIN,-2,66.98332977294922,24.78333282470703,LYTM,KARACHI,STRATEGIC
MAIN,-2,-74.1500015258789,40.766666412353516,MAAU,KEARNY,CONUS
MAIN,-2,-76.75,39.20000076293945,MADG,KEEDYSVILLE,CONUS
MAIN,-2,-72.28333282470703,42.91666793823242,MAFU,KEENE,CONUS
MAIN,-2,-88.92444610595703,30.410554885864258,MAHG,KEESLER AFB,CONUS
MAIN,-2,11.100000381469727,36.83333206176758,MBJJ,KELIBIA,Tunisia
MAIN,-2,-91.98332977294922,44.29999923706055,MBLS,KELLOG,CONUS
MAIN,-2,-85.25,42.30638885498047,MBMV,W K KELLOGG,CONUS
MAIN,-2,-98.58110809326172,29.384166717529297,MBPB,JBSA KELLY AFB,CONUS
MAIN,-2,-74.5999984741211,42.18194580078125,MBPD,KELLY CORNERS,CONUS
MAIN,-2,-87.83333587646484,42.58333206176758,MCYS,KENOSHA,CONUS
MAIN,-2,-122.25,47.36666488647461,MDDS,KENT,CONUS
MAIN,-2,-88.75194549560547,32.33250045776367,MDVL,KEY FLD,CONUS
MAIN,-2,-81.73472595214844,24.56944465637207,MDWT,KEY WEST NAVY,CONUS
MAIN,-2,-81.68888854980469,24.575834274291992,MDWY,KEY WEST NAS,CONUS
MAIN,-2,-81.80000305175781,24.552778244018555,MDXB,KEY WEST,CONUS
MAIN,-2,-122.5999984741211,47.79999923706055,MDYA,KEYPORT NTS,CONUS
MAIN,-2,-122.6500015258789,48.33333206176758,MDYH,WHIDBEY IS     SB,CONUS
MAIN,-2,-89.87055206298828,35.356666564941406,MEAN,MILLINGTON RGNL,CONUS
MAIN,-2,128.93804931640625,35.18055725097656,MEPJ,GIMHAE INTL,STRATEGIC
MAIN,-2,-81.53333282470703,30.83333396911621,MFRN,KINGS BAY,CONUS
MAIN,-2,-84.23332977294922,39.29999923706055,MFSZ,KINGS MILLS,CONUS
MAIN,-2,-84.23332977294922,39.29999923706055,MFTE,KINGS MILL ORD PL,CONUS
MAIN,-2,-121.73332977294922,42.15611267089844,MFWM,KLAMATH FALLS,CONUS
MAIN,-2,-79.71666717529297,39.45000076293945,MGMD,KINGWOOD,CONUS
MAIN,-2,-106.60916900634766,35.040279388427734,MHMV,KIRTLAND AFB,CONUS
MAIN,-2,-89.84610748291016,35.33944320678711,MJAT,MILLINGTON,CONUS
MAIN,-2,-81.43722534179688,28.289722442626953,MJDH,KISSIMMEE GATEWAY,CONUS
MAIN,-2,-121.78333282470703,42.20000076293945,MJNV,KLAMATH FALLS,CONUS
MAIN,-2,-83.94999694824219,35.96666717529297,MJYV,KNOXVILLE,CONUS
MAIN,-2,135.1999969482422,34.66666793823242,MKAG,KOBE,STRATEGIC
MAIN,-2,13.733333587646484,45.54999923706055,MLDL,KOPER,STRATEGIC
MAIN,-2,-149.98333740234375,61.16666793823242,MLRV,KULIS,CONUS
MAIN,-2,-158.06666564941406,21.46666717529297,MLVK,KUNIA,CONUS
MAIN,-2,126.71666717529297,35.983333587646484,MLWY,KUNSAN,STRATEGIC
MAIN,-2,127.64666748046875,34.89444351196289,MMGH,KWANGYANG,STRATEGIC
MAIN,-2,-91.25,43.81666564941406,MMQR,LA CROSSE,CONUS
MAIN,-2,-118.11666870117188,45.33333206176758,MMUL,LA GRANDE,CONUS
MAIN,-2,-95.05000305175781,29.633333206176758,MNWA,LA PORTE,CONUS
MAIN,-2,-106.58999633789062,31.980833053588867,MPBP,LA TUNA,CONUS
MAIN,-2,-86.34805297851562,32.35416793823242,MPCP,MONTGOMERY,CONUS
MAIN,-2,-98.5999984741211,29.399999618530273,MPLS,JBSA LACKLAND AFB,CONUS
MAIN,-2,-86.875,40.41666793823242,MQEJ,LAFAYETTE,CONUS
MAIN,-2,-92.0,30.183332443237305,MQFA,LAFAYETTE,CONUS
MAIN,-2,-27.09083366394043,38.76194381713867,MQNA,LAJES,STRATEGIC
MAIN,-2,-93.19999694824219,30.133333206176758,MQST,LAKE CHARLES,CONUS
MAIN,-2,-82.61666870117188,30.200000762939453,MQUK,LAKE CITY,CONUS
MAIN,-2,-94.21666717529297,39.099998474121094,MQUZ,LAKE CTY AMMO PLT,CONUS
MAIN,-2,-115.03333282470703,36.25,MRKT,LAKE MEAD BASE,CONUS
MAIN,-2,-74.31666564941406,40.016666412353516,MSBK,LAKEHURST,CONUS
MAIN,-2,-81.94999694824219,28.03333282470703,MSDK,LAKELAND,CONUS
MAIN,-2,0.5611110925674438,52.40944290161133,MSET,LAKENHEATH,STRATEGIC
MAIN,-2,-90.37000274658203,38.74861145019531,MSQB,LAMBERT ST LOUIS,CONUS
MAIN,-2,-76.29444122314453,40.122501373291016,MTET,LANCASTER,CONUS
MAIN,-2,-76.31666564941406,40.03333282470703,MTEU,LANCASTER,CONUS
MAIN,-2,-76.36055755615234,37.08277893066406,MUHJ,JB LANGLEY-EUSTIS,CONUS
MAIN,-2,-84.58333587646484,42.75,MUUU,LANSING,CONUS
MAIN,-2,-105.63333129882812,41.33333206176758,MVHZ,LARAMIE,CONUS
MAIN,-2,-99.5,27.516666412353516,MVKR,LAREDO,CONUS
MAIN,-2,-115.16666412353516,36.16666793823242,MWRJ,LAS VEGAS,CONUS
MAIN,-2,-73.80000305175781,42.733333587646484,MWWC,LATHAM,CONUS
MAIN,-2,-121.26667022705078,37.81666564941406,MWXP,LATHROP,CONUS
MAIN,-2,-100.7780532836914,29.35944366455078,MXDP,LAUGHLIN AFB,CONUS
MAIN,-2,-71.28888702392578,42.470001220703125,MXRD,LAURENCE G HANSCO,CONUS
MAIN,-2,-95.23500061035156,38.9716682434082,MYKJ,LAWRENCE,CONUS
MAIN,-2,-71.11666870117188,42.71666717529297,MYMU,LAWRENCE,CONUS
MAIN,-2,-71.12333679199219,42.71722412109375,MYMW,LAWRENCE MUNI,CONUS
MAIN,-2,-74.73332977294922,40.28333282470703,MYTZ,LAWRENCEVILLE,CONUS
MAIN,-2,-94.63583374023438,37.22194290161133,MYWX,LAWTON,CONUS
MAIN,-2,-84.98722076416016,32.3316650390625,MYXZ,LAWSON AAF,CONUS
MAIN,-2,0.11666666716337204,49.46666717529297,MZJK,LE HAVRE,STRATEGIC
MAIN,-2,-94.92222595214844,39.31111145019531,MZXD,LEAVENWORTH,CONUS
MAIN,-2,10.300000190734863,43.56666564941406,NBDY,LIVORNO,STRATEGIC
MAIN,-2,-75.83333587646484,41.16666793823242,NBHN,LEHIGH VALLEY,CONUS
MAIN,-2,-75.46666717529297,40.66666793823242,NBHO,LEHIGH VALLEY,CONUS
MAIN,-2,-111.88333129882812,40.38333511352539,NBJC,LEHI,CONUS
MAIN,-2,-119.95222473144531,36.33305740356445,NCBW,LEMOORE NAS,CONUS
MAIN,-2,-77.6500015258789,39.983333587646484,NDAM,LETTERKENNY DEPOT,CONUS
MAIN,-2,-77.6500015258789,39.983333587646484,NDAN,LETTERKENNY DEPOT,CONUS
MAIN,-2,-75.13639068603516,38.76388931274414,NDNK,LEWES,CONUS
MAIN,-2,-90.0183334350586,29.831666946411133,NEAC,NEW ORLEANS,CONUS
MAIN,-2,-76.88333129882812,40.95000076293945,NEFW,LEWISTOWN,CONUS
MAIN,-2,-84.5,38.08333206176758,NEKS,LEXINGTON BLGR AD,CONUS
MAIN,-2,-84.5,38.099998474121094,NELF,LEXINGTON,CONUS
MAIN,-2,-71.23332977294922,42.46666717529297,NENL,LEXINGTON,CONUS
MAIN,-2,-93.86666870117188,39.18333435058594,NEQR,LEXINGTON,CONUS
MAIN,-2,-110.34444427490234,31.588611602783203,NEWR,SIERRA VISTA MUNI,CONUS
MAIN,-2,-81.5616683959961,31.888334274291992,NEYU,WRIGHT AAF MIDCOA,CONUS
MAIN,-2,-96.75916290283203,40.850833892822266,NGCB,LINCOLN,CONUS
MAIN,-2,-96.68333435058594,40.81666564941406,NGCS,LINCOLN,CONUS
MAIN,-2,-117.1897201538086,32.733333587646484,NGWV,SAN DIEGO INTL,CONUS
MAIN,-2,-76.16666412353516,36.91666793823242,NJNF,LITTLE CREEK AMPH,CONUS
MAIN,-2,-76.17500305175781,36.91666793823242,NJNK,LITTLE CREEK,CONUS
MAIN,-2,-92.14305877685547,34.9183349609375,NKAK,LITTLE ROCK AFB,CONUS
MAIN,-2,-92.25,34.68333435058594,NKBV,LITTLE ROCK,CONUS
MAIN,-2,-3.0,53.41666793823242,NLFL,LIVERPOOL,STRATEGIC
MAIN,-2,-82.92778015136719,39.81388854980469,NLZG,RICKENBACKER INTL,CONUS
MAIN,-2,-82.93222045898438,39.81416702270508,NLZL,RICKENBACKER  ANG,CONUS
MAIN,-2,-71.00638580322266,42.36305618286133,NNGX,GENERAL EDWARD LA,CONUS
MAIN,-2,-111.8499984741211,41.78333282470703,NNLX,LOGAN,CONUS
MAIN,-2,1.25,6.166666507720947,NNWH,LOME,STRATEGIC
MAIN,-2,-94.41805267333984,33.41805648803711,NPMM,LONE STAR AMMO PL,CONUS
MAIN,-2,-118.19999694824219,33.766666412353516,NPTG,LONG BEACH,CONUS
MAIN,-2,-118.15166473388672,33.817779541015625,NPTM,LONG BEACH,CONUS
MAIN,-2,-118.40166473388672,33.93527603149414,NPTN,LONG BEACH CGAS,CONUS
MAIN,-2,-118.19999694824219,33.75,NPTR,LONG BEACH NSC,CONUS
MAIN,-2,-118.18333435058594,33.766666412353516,NPTU,LONG BEACH,CONUS
MAIN,-2,-118.18333435058594,33.766666412353516,NPTW,LONG BEACH    NSY,CONUS
MAIN,-2,-73.0,41.16666793823242,NPVL,LONG ISLAND,CONUS
MAIN,-2,-67.88583374023438,46.95055389404297,NRCH,LORING INTL,CONUS
MAIN,-2,-118.0513916015625,33.790000915527344,NRTX,LOS ALAMITOS AAF,CONUS
MAIN,-2,-118.47638702392578,34.22111129760742,NRZE,LOS ANGELES Z12,CONUS
MAIN,-2,-118.28333282470703,34.04999923706055,NSAB,LOS ANGELES,CONUS
MAIN,-2,-118.4080581665039,33.942501068115234,NSAG,LOS ANGELES INTL,CONUS
MAIN,-2,-118.26667022705078,33.71666717529297,NSAN,LOS ANGELES,CONUS
MAIN,-2,-84.73332977294922,38.18333435058594,NSQG,LOUISVILLE,CONUS
MAIN,-2,-85.78333282470703,38.266666412353516,NSQM,LOUISVILLE,CONUS
MAIN,-2,-85.78333282470703,38.266666412353516,NSQN,LOUISVILLE,CONUS
MAIN,-2,-85.20361328125,35.0352783203125,NTEA,LOVELL FLD,CONUS
MAIN,-2,-104.9000015258789,39.71666717529297,NTNB,LOWRY,CONUS
MAIN,-2,-158.1666717529297,21.41666603088379,NTUC,LUALUALEI NAVMAG,CONUS
MAIN,-2,-158.1666717529297,21.41666603088379,NTUF,LUALUALEI NMD,CONUS
MAIN,-2,-157.96665954589844,21.366666793823242,NTUH,LUALUALEI WEST LO,CONUS
MAIN,-2,-101.8499984741211,33.58333206176758,NTWF,LUBBOCK,CONUS
MAIN,-2,-101.820556640625,33.663612365722656,NTWM,LUBBOCK PRESTON S,CONUS
MAIN,-2,-112.383056640625,33.53499984741211,NUEX,LUKE AFB,CONUS
MAIN,-2,-79.16666412353516,37.41666793823242,NVED,LYNCHBURG,CONUS
MAIN,-2,-90.53472137451172,34.21666717529297,NVUS,LYON,CONUS
MAIN,-2,-82.52111053466797,27.849445343017578,NVZR,MACDILL AFB,CONUS
MAIN,-2,10.443611145019531,33.349998474121094,NWXN,MADANIYIN,Tunisia
MAIN,-2,-122.43333435058594,47.233333587646484,NXBY,MADIGAN GENERAL,CONUS
MAIN,-2,-96.78055572509766,34.09722137451172,NXCC,MADILL,CONUS
MAIN,-2,-89.36666870117188,43.08333206176758,NXHE,MADISON,CONUS
MAIN,-2,-96.06527709960938,33.067779541015625,NYJY,MAJORS,CONUS
MAIN,-2,-157.9499969482422,21.33333396911621,NYNF,JBPH-H MAKALAPA,CONUS
MAIN,-2,-111.18722534179688,47.504722595214844,NZAS,MALMSTROM AFB HEL,CONUS
MAIN,-2,9.600000381469727,34.28333282470703,OPA1,FWD BASE,Tunisia
MAIN,-2,9.433333396911621,34.08333206176758,OPA2,FWD BASE 2ND,Tunisia
MAIN,-2,-76.4477767944336,38.27527618408203,PABH,PATUXENT RIVER,CONUS
MAIN,-2,-71.46666717529297,42.96666717529297,PADV,MANCHESTER,CONUS
MAIN,-2,-100.9000015258789,46.81666564941406,PAJP,MANDAN,CONUS
MAIN,-2,-96.5713882446289,39.18333435058594,PASP,MANHATTAN,CONUS
MAIN,-2,120.96666717529297,14.583333015441895,PAXM,MANILA,STRATEGIC
MAIN,-2,-87.6500015258789,44.08333206176758,PBDH,MANITOWOC,CONUS
MAIN,-2,-82.53333282470703,40.78333282470703,PBXH,MANSFIELD,CONUS
MAIN,-2,-82.51667022705078,40.821388244628906,PBXP,MANSFIELD LAHM RG,CONUS
MAIN,-2,-104.31666564941406,19.03333282470703,PCFC,MANZANILLO,STRATEGIC
MAIN,-2,-79.88361358642578,9.363333702087402,PCFG,MANZANILLO,STRATEGIC
MAIN,-2,-117.25944519042969,33.88083267211914,PCZP,MARCH ARB,CONUS
MAIN,-2,-117.25,33.900001525878906,PCZT,MARCH,CONUS
MAIN,-2,-122.26667022705078,38.099998474121094,PDZE,MARE ISLAND,CONUS
MAIN,-2,-122.23332977294922,38.08333206176758,PDZF,MARE ISLAND   NSY,CONUS
MAIN,-2,-157.93666076660156,21.352222442626953,PEBG,PEARL HARBOR,CONUS
MAIN,-2,-117.38361358642578,33.31694412231445,PEBH,PENDLETON,CONUS
MAIN,-2,-84.51667022705078,33.91666793823242,PEQA,MARIETTA,CONUS
MAIN,-2,-84.56666564941406,33.95000076293945,PEQE,MARIETTA,CONUS
MAIN,-2,-84.51667022705078,33.900001525878906,PEQF,MARIETTA      NAS,CONUS
MAIN,-2,-88.93333435058594,37.733333587646484,PFKS,MARION,CONUS
MAIN,-2,-83.11666870117188,40.61666488647461,PFTE,MARION,CONUS
MAIN,-2,-75.23332977294922,39.900001525878906,PHAG,PHILADELPHIA,CONUS
MAIN,-2,-96.76444244384766,39.05277633666992,PHMS,MARSHALL AAF,CONUS
MAIN,-2,-86.06388854980469,33.98611068725586,PJFS,MARTIN,CONUS
MAIN,-2,-76.41388702392578,39.32555389404297,PJMS,MARTIN STATE,CONUS
MAIN,-2,-77.96666717529297,39.45000076293945,PJVS,MARTINSBURG,CONUS
MAIN,-2,-77.98472595214844,39.40194320678711,PJVY,EASTERN WV RGNL S,CONUS
MAIN,-2,-94.86666870117188,40.349998474121094,PKRY,MARYVILLE,CONUS
MAIN,-2,128.56666564941406,35.18333435058594,PKVP,MASAN,STRATEGIC
MAIN,-2,-121.29722595214844,38.55527877807617,PLXL,SACRAMENTO MATHER,CONUS
MAIN,-2,-76.1500015258789,43.099998474121094,PNCZ,MATTYDALE,CONUS
MAIN,-2,-86.36583709716797,32.383056640625,PNQS,MAXWELL AFB,CONUS
MAIN,-2,-119.19527435302734,34.16777801513672,PPBC,PORT HUENEME,CONUS
MAIN,-2,-81.42444610595703,30.391387939453125,PPSB,MAYPORT NS,CONUS
MAIN,-2,-81.43333435058594,30.399999618530273,PPSC,MAYPORT,CONUS
MAIN,-2,-81.43333435058594,30.399999618530273,PPSH,MAYPORT NAVAL ST,CONUS
MAIN,-2,-95.75,34.93333435058594,PQEK,MCALESTER     AAP,CONUS
MAIN,-2,-95.75,34.93333435058594,PQEL,MCALESTER,CONUS
MAIN,-2,-95.75,34.93333435058594,PQEM,MCALESTER AAP,CONUS
MAIN,-2,-115.1522216796875,36.08000183105469,PQSY,MC CARRAN INTL,CONUS
MAIN,-2,-122.47638702392578,47.137779235839844,PQWY,JBLM MCCHORD FLD,CONUS
MAIN,-2,-81.32250213623047,28.579166412353516,PRAY,ORLANDO,CONUS
MAIN,-2,-121.40055847167969,38.66777801513672,PRJY,MC CLELLAN AFLD,CONUS
MAIN,-2,-84.5969467163086,34.01305389404297,PRNG,COBB CO MC COLLUM,CONUS
MAIN,-2,-97.26750183105469,37.62305450439453,PRQE,MC CONNELL AFB,CONUS
MAIN,-2,-97.26721954345703,37.62305450439453,PRQG,MCCONNELL     ANG,CONUS
MAIN,-2,-81.8499984741211,39.635833740234375,PRXK,MCCONNELSVILLE,CONUS
MAIN,-2,-121.38333129882812,38.650001525878906,PRYV,MC CLELLAN AFB,CONUS
MAIN,-2,-81.30889129638672,28.429445266723633,PSAX,ORLANDO INTL,CONUS
MAIN,-2,-90.73777770996094,43.95833206176758,PSBE,SPARTA FORT MC CO,CONUS
MAIN,-2,-80.80110931396484,33.920833587646484,PSTE,MC ENTIRE JNGB,CONUS
MAIN,-2,-83.9941635131836,35.81111145019531,PSXE,MC GHEE TYSON,CONUS
MAIN,-2,-74.59166717529297,40.01555633544922,PTFL,MC GUIRE FLD,CONUS
MAIN,-2,-74.5905532836914,40.01555633544922,PTFM,MCGUIRE AFB,CONUS
MAIN,-2,-74.5999984741211,40.016666412353516,PTFY,MCGUIRE,CONUS
MAIN,-2,9.879444122314453,32.688331604003906,PUBW,OUED SIAH,Tunisia
MAIN,-2,-79.83222198486328,40.34388732910156,PUCT,MCKEESPORT,CONUS
MAIN,-2,-77.01667022705078,40.21666717529297,PVKT,MECHANICSBURG,CONUS
MAIN,-2,-76.98527526855469,40.2227783203125,PVSB,MECHANICSBURG,CONUS
MAIN,-2,-77.01667022705078,40.21666717529297,PVSD,MECHANICSBURG,CONUS
MAIN,-2,-77.01667022705078,40.21666717529297,PVSE,MECHANICSBURG ICP,CONUS
MAIN,-2,-99.24333190917969,29.808889389038086,PWEL,MEDINA,CONUS
MAIN,-2,-80.5999984741211,28.08333396911621,PWYL,MELBOURNE,CONUS
MAIN,-2,-93.03333282470703,34.5,PYGY,HOT SPGS MEMORIAL,CONUS
MAIN,-2,-90.06666564941406,35.11666488647461,PYJT,MEMPHIS DEPOT,CONUS
MAIN,-2,-89.96666717529297,35.04999923706055,PYJX,MEMPHIS       ANG,CONUS
MAIN,-2,-90.05000305175781,35.13333511352539,PYKB,MEMPHIS,CONUS
MAIN,-2,-90.0,35.08333206176758,PYKC,MEMPHIS,CONUS
MAIN,-2,-90.08333587646484,35.11666488647461,PYKE,MEMPHIS,CONUS
MAIN,-2,-89.97694396972656,35.13166809082031,PYKG,MEMPHIS,CONUS
MAIN,-2,-89.97666931152344,35.04249954223633,PYKL,MEMPHIS INTL,CONUS
MAIN,-2,-89.86666870117188,35.349998474121094,PYKS,MEMPHIS,CONUS
MAIN,-2,-123.75389099121094,39.26194381713867,PYVR,LITTLE RIVER,CONUS
MAIN,-2,-88.69999694824219,32.349998474121094,QALE,MERIDIAN,CONUS
MAIN,-2,-88.5552749633789,32.553611755371094,QALG,MERIDIAN NAS,CONUS
MAIN,-2,-96.66666412353516,32.75,QBLU,MESQUITE,CONUS
MAIN,-2,-92.36027526855469,38.983055114746094,QCDH,COLUMBIA,CONUS
MAIN,-2,-80.25,25.75,QCEY,MIAMI,CONUS
MAIN,-2,-80.18333435058594,25.649999618530273,QCFA,MIAMI,CONUS
MAIN,-2,-80.29000091552734,25.795278549194336,QCFE,MIAMI INTL,CONUS
MAIN,-2,-80.18333435058594,25.78333282470703,QCFF,MIAMI,CONUS
MAIN,-2,-112.9375,40.19944381713867,QCQQ,MICHAEL AAF,CONUS
MAIN,-2,-72.65110778808594,41.56222152709961,QDVL,MIDDLETOWN,CONUS
MAIN,-2,-71.28333282470703,41.53333282470703,QEDS,MIDDLETOWN,CONUS
MAIN,-2,-83.07888793945312,30.011667251586914,QEPR,MIDWAY,CONUS
MAIN,-2,-88.78333282470703,35.93333435058594,QFND,MILAN AMMO PLANT,CONUS
MAIN,-2,-96.6191635131836,45.218055725097656,QFNM,MILBANK,CONUS
MAIN,-2,0.4863888919353485,52.36194610595703,QFQE,MILDENHALL,STRATEGIC
MAIN,-2,-89.9000015258789,35.349998474121094,QGVL,MILLINGTON,CONUS
MAIN,-2,-87.91666412353516,43.03333282470703,QHLE,MILWAUKEE,CONUS
MAIN,-2,-87.93333435058594,43.04999923706055,QHMA,MILWAUKEE M 02,CONUS
MAIN,-2,55.04999923706055,24.983333587646484,QHPB,JEBEL ALI,STRATEGIC
MAIN,-2,56.04999923706055,25.96666717529297,QHPD,MINA SAQR,STRATEGIC
MAIN,-2,54.36666488647461,24.516666412353516,QHPF,MINA ZAYED,STRATEGIC
MAIN,-2,-93.22166442871094,44.88194274902344,QJKL,MINNEAPOLIS ST PA,CONUS
MAIN,-2,-93.25,44.95000076293945,QJKS,MINN ST PAUL,CONUS
MAIN,-2,-93.25,44.95000076293945,QJNT,MINNEAPOLIS,CONUS
MAIN,-2,-101.3580551147461,48.41583251953125,QJVF,MINOT AFB,CONUS
MAIN,-2,-101.31666564941406,48.266666412353516,QJVZ,MINOT,CONUS
MAIN,-2,-101.2780532836914,48.25777816772461,QJWG,MINOT INTL,CONUS
MAIN,-2,-117.14167022705078,32.86833190917969,QKJA,MIRAMAR MCAS,CONUS
MAIN,-2,-94.65555572509766,39.02777862548828,QKTA,MISSION,CONUS
MAIN,-2,-92.43333435058594,39.43333435058594,QMDU,MOBERLY,CONUS
MAIN,-2,-88.05000305175781,30.683332443237305,QMFU,MOBILE,CONUS
MAIN,-2,-88.11666870117188,30.683332443237305,QMFZ,MOBILE,CONUS
MAIN,-2,-122.04916381835938,37.41611099243164,QMSN,MOFFETT FEDERAL A,CONUS
MAIN,-2,126.38333129882812,34.78333282470703,QNPW,MOKPO,STRATEGIC
MAIN,-2,10.753889083862305,35.75777816772461,QNVA,HABIB BOURGUIBA I,Tunisia
MAIN,-2,-83.71666717529297,33.78333282470703,QPFW,MONROE,CONUS
MAIN,-2,-89.6500015258789,42.599998474121094,QPMA,MONROE,CONUS
MAIN,-2,-85.33333587646484,32.349998474121094,QQSN,MONTGOMERY,CONUS
MAIN,-2,9.809721946716309,31.49305534362793,QRAW,MONTESSEUR,Tunisia
MAIN,-2,-83.19305419921875,30.967777252197266,QSEU,MOODY AFB,CONUS
MAIN,-2,-76.67583465576172,34.65277862548828,QTUP,MOREHEAD CITY,CONUS
MAIN,-2,-76.88333129882812,34.900001525878906,QTUR,MOREHEAD CITY,CONUS
MAIN,-2,-117.11111450195312,33.915279388427734,QTXL,MORENO VALLEY,CONUS
MAIN,-2,-79.94999694824219,39.63333511352539,QUEG,MORGANTOWN,CONUS
MAIN,-2,-78.83333587646484,35.79999923706055,QVNC,MORRISVILLE,CONUS
MAIN,-2,-80.71666717529297,39.79999923706055,QWZM,MOUNDSVILLE,CONUS
MAIN,-2,-82.88333129882812,42.599998474121094,QYDL,MT CLEMENS,CONUS
MAIN,-2,-115.87249755859375,43.043609619140625,QYZH,MOUNTAIN HOME AFB,CONUS
MAIN,-2,129.10000610351562,37.53333282470703,RBXH,MUKHOJIN NI,STRATEGIC
MAIN,-2,-88.30000305175781,36.58333206176758,RCXQ,MURRAY,CONUS
MAIN,-2,58.63333511352539,23.616666793823242,RCYQ,MUSCAT,STRATEGIC
MAIN,-2,58.599998474121094,23.616666793823242,RCYT,MUSCAT,STRATEGIC
MAIN,-2,-95.36666870117188,35.70000076293945,RDKD,MUSKOGEE,CONUS
MAIN,-2,-78.92833709716797,33.67972183227539,RDRD,MYRTLE BEACH INTL,CONUS
MAIN,-2,10.38194465637207,32.30611038208008,REAG,REMADA,Tunisia
MAIN,-2,136.86666870117188,35.04999923706055,RELG,NAGOYA,STRATEGIC
MAIN,-2,127.67166900634766,26.205278396606445,REPV,NAHA,STRATEGIC
MAIN,-2,14.266666412353516,40.83333206176758,RGJW,NAPLES,STRATEGIC
MAIN,-2,-90.05000305175781,29.950000762939453,RGNP,NEW ORLEANS NAVSA,CONUS
MAIN,-2,-86.78861236572266,36.16777801513672,RHAS,NASHVILLE,CONUS
MAIN,-2,-86.80000305175781,36.16666793823242,RHEL,NASHVILLE,CONUS
MAIN,-2,-71.3499984741211,42.28333282470703,RHTC,NATICK LABORATORY,CONUS
MAIN,-2,-77.06666564941406,38.86666488647461,RJHC,NAVY YARD,CONUS
MAIN,-2,-94.0,29.983333587646484,RJVF,NEDERLAND,CONUS
MAIN,-2,-115.03416442871094,36.23611068725586,RKMF,NELLIS AFB,CONUS
MAIN,-2,-76.83333587646484,40.21666717529297,RPCM,NEW CUMBERLAND DP,CONUS
MAIN,-2,-72.9286117553711,41.30805587768555,RPWN,NEW HAVEN,CONUS
MAIN,-2,-72.90333557128906,41.26944351196289,RPWO,NEW HAVEN,CONUS
MAIN,-2,-72.91666412353516,41.29999923706055,RPYA,NEW HAVEN MAP,CONUS
MAIN,-2,-72.0999984741211,41.35555648803711,RQFA,NEW LONDON,CONUS
MAIN,-2,-72.0999984741211,41.35555648803711,RQFF,NEW LONDON,CONUS
MAIN,-2,-72.0999984741211,41.35555648803711,RQFK,NEW LONDON,CONUS
MAIN,-2,-90.25138854980469,29.991111755371094,RQLH,NEW ORLEANS NAS,CONUS
MAIN,-2,-90.11666870117188,29.96666717529297,RQMA,NEW ORLEANS,CONUS
MAIN,-2,-90.25916290283203,29.99333381652832,RQMN,LOUIS ARMSTRONG N,CONUS
MAIN,-2,-90.02666473388672,29.82722282409668,RQNA,NEW ORLEANS NAS J,CONUS
MAIN,-2,-90.01667022705078,29.83333396911621,RQNB,NEW ORLEANS NAV S,CONUS
MAIN,-2,-90.06666564941406,29.950000762939453,RQNJ,NEW ORLEANS SHYD,CONUS
MAIN,-2,-90.01667022705078,29.950000762939453,RQNK,NEW ORLEANS,CONUS
MAIN,-2,-90.05000305175781,30.0,RQNM,NEW ORLEANS   NSA,CONUS
MAIN,-2,-77.4397201538086,34.70833206176758,RQWP,NEW RIVER MCAS,CONUS
MAIN,-2,-80.59166717529297,37.13333511352539,RQXF,NEW RIVER,CONUS
MAIN,-2,-73.88333129882812,40.58333206176758,RRHQ,NEW YORK,CONUS
MAIN,-2,-74.03333282470703,40.71666717529297,RRHU,NEW YORK,CONUS
MAIN,-2,-73.9000015258789,40.81666564941406,RRJJ,NEW YORK,CONUS
MAIN,-2,-74.16860961914062,40.692501068115234,RRPQ,NEWARK LIBERTY IN,CONUS
MAIN,-2,-74.18333435058594,40.71666717529297,RRQL,PORT NEWARK,CONUS
MAIN,-2,-73.96666717529297,40.66666793823242,RRRK,NEW YORK PORT EMB,CONUS
MAIN,-2,-74.0,41.5,RSDQ,NEWBURGH,CONUS
MAIN,-2,-71.33333587646484,41.5,RUAD,NEWPORT,CONUS
MAIN,-2,-71.33333587646484,41.5,RUAM,NEWPORT,CONUS
MAIN,-2,-71.33333587646484,41.5,RUAQ,NEWPORT T2,CONUS
MAIN,-2,-76.41666412353516,37.0,RULQ,NEWPORT NEWS,CONUS
MAIN,-2,-76.4000015258789,37.0,RULV,NEWPORT NEWS,CONUS
MAIN,-2,-79.06666564941406,43.099998474121094,RVKC,NIAGARA FALLS,CONUS
MAIN,-2,-78.94583129882812,43.10749816894531,RVKQ,NIAGARA FALLS INT,CONUS
MAIN,-2,-80.03333282470703,32.900001525878906,RYSW,NO CHARLESTON,CONUS
MAIN,-2,-79.98332977294922,32.88333511352539,RYTJ,NO CHARLESTON,CONUS
MAIN,-2,-121.93333435058594,38.266666412353516,RZJQ,NO HIGHLANDS,CONUS
MAIN,-2,-117.19999694824219,32.70000076293945,RZMJ,NORTH ISLAND,CONUS
MAIN,-2,-117.21333312988281,32.698612213134766,RZMK,NORTH ISLAND NAS,CONUS
MAIN,-2,-92.26667022705078,34.766666412353516,RZPW,NO LITTLE ROCK,CONUS
MAIN,-2,-117.21527862548828,32.69916534423828,RZQH,NORTH ISLAND NAS,CONUS
MAIN,-2,-71.41666412353516,41.83333206176758,SAAX,N PROVIDENCE,CONUS
MAIN,-2,-117.17194366455078,32.71527862548828,SABZ,SAN DIEGO 02,CONUS
MAIN,-2,-117.14360809326172,32.86916732788086,SACB,SAN DIEGO ANG,CONUS
MAIN,-2,-71.43333435058594,41.733333587646484,SAEJ,NO SMITHFIELD,CONUS
MAIN,-2,-117.55000305175781,33.95000076293945,SAXL,NORCO,CONUS
MAIN,-2,-76.28333282470703,36.849998474121094,SBDD,NORFOLK GSA FAC,CONUS
MAIN,-2,-76.28333282470703,36.93333435058594,SBDG,NORFOLK       NSC,CONUS
MAIN,-2,-76.30000305175781,36.83333206176758,SBDJ,NORFOLK,CONUS
MAIN,-2,-76.28333282470703,36.93333435058594,SBDP,NORFOLK NST,CONUS
MAIN,-2,-76.20111083984375,36.89472198486328,SBDQ,NORFOLK INTL,CONUS
MAIN,-2,-76.28916931152344,36.93777847290039,SBDW,NORFOLK NS,CONUS
MAIN,-2,-76.30000305175781,36.849998474121094,SBDZ,NORFOLK,CONUS
MAIN,-2,-76.32749938964844,36.90999984741211,SBEA,NORFOLK,CONUS
MAIN,-2,-76.30000305175781,36.83333206176758,SBEN,NORFOLK NAVY,CONUS
MAIN,-2,-76.28333282470703,36.93333435058594,SBEQ,NORFOLK T2,CONUS
MAIN,-2,-87.36027526855469,39.52777862548828,SBKE,N TERRE HAUTE,CONUS
MAIN,-2,-75.3499984741211,40.11666488647461,SBLE,NORRISTOWN,CONUS
MAIN,-2,-117.21527862548828,32.69916534423828,SBNB,N ISLAND,CONUS
MAIN,-2,-117.19999694824219,32.70000076293945,SBNP,N ISLAND NAS,CONUS
MAIN,-2,-117.23500061035156,34.09527587890625,SCEY,SAN BERNARDINO IN,CONUS
MAIN,-2,-99.89111328125,39.83388900756836,SCTF,NORTON,CONUS
MAIN,-2,10.5,34.28333282470703,SEA1,TUNISIASEABASE,Tunisia
MAIN,-2,-122.66666412353516,48.36666488647461,SEDH,OAK HARBOR,CONUS
MAIN,-2,-84.19999694824219,36.03333282470703,SEHB,OAK RIDGE,CONUS
MAIN,-2,-122.19999694824219,37.71666717529297,SERB,OAKLAND,CONUS
MAIN,-2,-122.25,37.83333206176758,SERH,OAKLAND,CONUS
MAIN,-2,-122.22250366210938,37.726112365722656,SERJ,OAKLAND,CONUS
MAIN,-2,-122.33333587646484,37.81666564941406,SERS,OAKLAND,CONUS
MAIN,-2,-122.33333587646484,37.81666564941406,SERU,OAKLAND SEALAND T,CONUS
MAIN,-2,-122.19999694824219,37.75,SESW,OAKLAND NAVY,CONUS
MAIN,-2,-122.30000305175781,37.81666564941406,SETE,OAKLAND ARMY BASE,CONUS
MAIN,-2,-82.1500015258789,29.200000762939453,SFHB,OCALA,CONUS
MAIN,-2,-76.03194427490234,36.822776794433594,SFPH,OCEANA NAS,CONUS
MAIN,-2,-76.03333282470703,36.83333206176758,SFPM,OCEANA,CONUS
MAIN,-2,-95.90860748291016,41.11944580078125,SGBP,OFFUTT AFB,CONUS
MAIN,-2,-111.98332977294922,41.233333587646484,SGNV,OGDEN,CONUS
MAIN,-2,-112.01305389404297,41.195556640625,SGPA,OGDEN HINCKLEY,CONUS
MAIN,-2,-112.0,41.150001525878906,SGPN,OGDEN ORD PLANT,CONUS
MAIN,-2,-111.98332977294922,41.233333587646484,SGQM,OGDEN,CONUS
MAIN,-2,-94.91471862792969,39.36833190917969,SHA5,SHERMAN AAF,CONUS
MAIN,-2,-121.27333068847656,37.836666107177734,SHAR,SHARPE AAF,CONUS
MAIN,-2,-97.38333129882812,35.41666793823242,SHCZ,OKLAHOMA CITY,CONUS
MAIN,-2,-97.51667022705078,35.46666717529297,SHDD,OKLAHOMA CITY 02,CONUS
MAIN,-2,-97.53333282470703,35.46666717529297,SHDT,OKLAHOMA CITY,CONUS
MAIN,-2,-97.37777709960938,35.40416717529297,SHDV,OKLAHOMA CITY,CONUS
MAIN,-2,-95.96666717529297,35.599998474121094,SHFM,OKMULGEE,CONUS
MAIN,-2,-94.81888580322266,38.88138961791992,SHMZ,OLATHE,CONUS
MAIN,-2,-76.76249694824219,40.19305419921875,SHYQ,HARRISBURG INTL,CONUS
MAIN,-2,-96.0,41.25,SJRF,OMAHA,CONUS
MAIN,-2,-96.0,41.25,SJRM,OMAHA,CONUS
MAIN,-2,-91.21916961669922,43.88333511352539,SJZQ,ONALASKA,CONUS
MAIN,-2,-77.23332977294922,34.483333587646484,SKHU,ONSLOW BAY,CONUS
MAIN,-2,-117.60111236572266,34.05611038208008,SKKA,ONTARIO INTL,CONUS
MAIN,-2,-85.41666412353516,32.63333511352539,SKNU,OPELIKA,CONUS
MAIN,-2,-72.68333435058594,41.93333435058594,SKXJ,ORANGE,CONUS
MAIN,-2,-73.94999694824219,41.04999923706055,SLFU,ORANGEBURG,CONUS
MAIN,-2,-81.36666870117188,28.516666412353516,SLWA,ORLANDO,CONUS
MAIN,-2,-81.3499984741211,28.549999237060547,SLWB,ORLANDO,CONUS
MAIN,-2,135.42889404296875,34.647499084472656,SMXS,OSAKA,STRATEGIC
MAIN,-2,127.02972412109375,37.09055709838867,SMYU,OSAN AB,STRATEGIC
MAIN,-2,-90.5,44.0,SNKA,OSHKOSH,CONUS
MAIN,-2,-70.52278137207031,41.6591682434082,SPBN,CAPE COD CGAS,CONUS
MAIN,-2,-122.28138732910156,47.90833282470703,STDF,PAINE,CONUS
MAIN,-2,-158.10000610351562,21.399999618530273,STQT,PALEHUA,CONUS
MAIN,-2,13.091111183166504,38.17583465576172,STRL,PALERMO,STRATEGIC
MAIN,-2,13.368888854980469,38.1261100769043,STRM,PALERMO,STRATEGIC
MAIN,-2,-80.0955581665039,26.683055877685547,STXG,PALM BEACH INTL,CONUS
MAIN,-2,-80.03333282470703,26.700000762939453,STYW,PALM BEACH,CONUS
MAIN,-2,-79.53333282470703,8.949999809265137,SVCN,PANAMA CITY,STRATEGIC
MAIN,-2,-85.66666412353516,30.16666603088379,SVDZ,PANAMA CITY,CONUS
MAIN,-2,-112.01194763183594,33.43527603149414,SVNY,PAPAGO,CONUS
MAIN,-2,-95.55000305175781,33.650001525878906,SWBM,PARIS,CONUS
MAIN,-2,-81.53333282470703,39.266666412353516,SWHZ,PARKERSBURG,CONUS
MAIN,-2,-81.78333282470703,41.25,SWMT,PARMA,CONUS
MAIN,-2,-118.16666412353516,34.150001525878906,SWUM,PASADENA,CONUS
MAIN,-2,-88.53333282470703,30.350000381469727,SWYM,PASCAGOULA,CONUS
MAIN,-2,-119.11666870117188,46.25,SWZZ,PASCO,CONUS
MAIN,-2,-80.61000061035156,28.235000610351562,SXHT,PATRICK AFB,CONUS
MAIN,-2,-76.41000366210938,38.2863883972168,SYCM,PATUXENT RIVER NA,CONUS
MAIN,-2,-157.96665954589844,21.399999618530273,SYYT,PEARL CITY,CONUS
MAIN,-2,-157.9499969482422,21.383333206176758,SYZB,PEARL HARBOR SHYD,CONUS
MAIN,-2,-158.0,21.366666793823242,SYZJ,PEARL HARBOR  NST,CONUS
MAIN,-2,-158.0,21.366666793823242,SYZN,JBPH-H PEARL HARB,CONUS
MAIN,-2,-158.0,21.316667556762695,SYZP,PEARL HARBOR  NSC,CONUS
MAIN,-2,-157.96665954589844,21.33333396911621,SYZZ,PEARL HARBOR NAD,CONUS
MAIN,-2,-70.82333374023438,43.07805633544922,SZDT,PORTSMOUTH INTL A,CONUS
MAIN,-2,-72.79194641113281,40.915000915527344,SZTN,CALVERTON EXECUTI,CONUS
MAIN,-2,-87.21833038330078,30.4233341217041,TABN,PENSACOLA NAVY,CONUS
MAIN,-2,-87.19999694824219,30.41666603088379,TAXT,PENSACOLA,CONUS
MAIN,-2,-87.26805877685547,30.3527774810791,TAXU,PENSACOLA NAS CHE,CONUS
MAIN,-2,-87.21666717529297,30.399999618530273,TAXW,PENSACOLA,CONUS
MAIN,-2,-77.05000305175781,38.86666488647461,TAYZ,PENTAGON,CONUS
MAIN,-2,-89.61666870117188,40.68333435058594,TBBT,PEORIA,CONUS
MAIN,-2,-80.3499984741211,25.600000381469727,TCEF,PERRINE,CONUS
MAIN,-2,-83.6500015258789,41.54999923706055,TCKF,PERRYSBURG,CONUS
MAIN,-2,-71.94999694824219,42.88333511352539,TDEE,PETERBOROUGH,CONUS
MAIN,-2,-77.4000015258789,37.20000076293945,TDHU,PETERSBURG,CONUS
MAIN,-2,-104.70083618164062,38.80583190917969,TDHV,CITY OF COLORADO,CONUS
MAIN,-2,-104.69999694824219,38.81666564941406,TDKA,PETERSON AFB,CONUS
MAIN,-2,-95.34361267089844,42.91805648803711,TDKF,PETERSON,CONUS
MAIN,-2,-95.3499984741211,42.91666793823242,TDKP,PETERSON,CONUS
MAIN,-2,-75.16666412353516,40.0,TDWK,PHILADELPHIA 04,CONUS
MAIN,-2,-75.16666412353516,39.93333435058594,TDXA,PHILADELPHIA,CONUS
MAIN,-2,-75.24083709716797,39.872222900390625,TDXG,PHILADELPHIA INTL,CONUS
MAIN,-2,-75.08333587646484,40.016666412353516,TDXQ,PHILADELPHIA,CONUS
MAIN,-2,-75.23332977294922,39.899723052978516,TDXT,PHILADELPHIA DPSC,CONUS
MAIN,-2,-75.08333587646484,39.91666793823242,TEBQ,PHILADELPHIA NAV,CONUS
MAIN,-2,-75.92778015136719,40.0625,TECV,DMA DPO PHILADEL,CONUS
MAIN,-2,-112.05000305175781,33.5,TEWJ,PHOENIX,CONUS
MAIN,-2,-118.08333587646484,33.83333206176758,TFHD,PICO RIVERA,CONUS
MAIN,-2,-100.2861099243164,44.38277816772461,TFMT,PIERRE RGNL,CONUS
MAIN,-2,-92.0,34.18333435058594,TGAQ,PINE BLUFF,CONUS
MAIN,-2,-92.08333587646484,34.31666564941406,TGAW,PINE BLUFF ARSNL,CONUS
MAIN,-2,23.633333206176758,37.93333435058594,TGWS,PARAIEVS,STRATEGIC
MAIN,-2,-80.01667022705078,40.28333282470703,THGC,PITTSBURGH,CONUS
MAIN,-2,-73.25,42.45000076293945,THJC,PITTSFIELD,CONUS
MAIN,-2,-72.85861206054688,41.67444610595703,THSW,PLAINVILLE,CONUS
MAIN,-2,-91.23332977294922,30.28333282470703,THVB,PLAQUEMINE,CONUS
MAIN,-2,-73.46805572509766,44.65083312988281,THWA,PLATTSBURGH INTL,CONUS
MAIN,-2,-73.44999694824219,44.70000076293945,THXR,PLATTSBURGH,CONUS
MAIN,-2,-94.66889190673828,42.73555374145508,TJYZ,POCAHONTAS,CONUS
MAIN,-2,129.36666870117188,36.04999923706055,TKDW,POHANG,STRATEGIC
MAIN,-2,-117.25,32.71666717529297,TKVP,POINT LOMA,CONUS
MAIN,-2,-119.12083435058594,34.120277404785156,TKXA,POINT MUGU NAS,CONUS
MAIN,-2,-119.11666870117188,34.11666488647461,TKXB,POINT MUGU,CONUS
MAIN,-2,-82.13333129882812,38.83333206176758,TLAC,POINT PLEASANT,CONUS
MAIN,-2,-117.75,34.04999923706055,TLSH,POMONA,CONUS
MAIN,-2,-79.01444244384766,35.170833587646484,TMKH,POPE AAF,CONUS
MAIN,-2,-79.01667022705078,35.16666793823242,TMKL,POPE,CONUS
MAIN,-2,-90.41666412353516,36.266666412353516,TMYB,POPLAR BLUFF,CONUS
MAIN,-2,-82.94999694824219,41.5,TNQV,PORT CLINTON,CONUS
MAIN,-2,-80.11666870117188,26.100000381469727,TNVX,PORT EVERGLADES,CONUS
MAIN,-2,-119.08333587646484,34.21666717529297,TNZP,PORT HUENEME,CONUS
MAIN,-2,-119.21666717529297,34.150001525878906,TNZQ,PORT HUENEME  CBC,CONUS
MAIN,-2,-119.21666717529297,34.150001525878906,TNZV,PORT HUENEME,CONUS
MAIN,-2,-119.19999694824219,34.150001525878906,TNZY,PORT HUENEME NCBC,CONUS
MAIN,-2,8.10111141204834,33.93972396850586,TPAL,NEFTA,Tunisia
MAIN,-2,-95.67666625976562,39.040279388427734,TPAR,TOPEKA,CONUS
MAIN,-2,32.29999923706055,31.25,TPPR,PORT SAID,STRATEGIC
MAIN,-2,101.3499984741211,3.0166666507720947,TPRW,PORT KELANG,STRATEGIC
MAIN,-2,-82.5,27.850000381469727,TPRZ,PORT TAMPA,CONUS
MAIN,-2,-122.75,48.11666488647461,TPSL,PORT TOWNSEND,CONUS
MAIN,-2,-70.25,43.66666793823242,TQGJ,PORTLAND,CONUS
MAIN,-2,-122.61666870117188,45.5,TQJF,PORTLAND ANG,CONUS
MAIN,-2,-122.5999984741211,45.58333206176758,TQJG,PORTLAND,CONUS
MAIN,-2,-122.61666870117188,45.5,TQJX,PORTLAND,CONUS
MAIN,-2,-122.5969467163086,45.5886116027832,TQKD,PORTLAND INTL,CONUS
MAIN,-2,-122.5999984741211,45.58333206176758,TQKG,PORTLAND,CONUS
MAIN,-2,10.183333396911621,37.16666793823242,TQPB,PORTO FARINA,Tunisia
MAIN,-2,-70.71333312988281,43.07694625854492,TQQL,PORTSMOUTH,CONUS
MAIN,-2,-70.75,43.08333206176758,TQRU,PORTSMOUTH,CONUS
MAIN,-2,-76.30166625976562,36.8316650390625,TQTV,PORTSMOUTH NAVY,CONUS
MAIN,-2,-76.33333587646484,36.78333282470703,TQUD,PORTSMOUTH,CONUS
MAIN,-2,-76.30000305175781,36.81666564941406,TQUH,PORTSMOUTH,CONUS
MAIN,-2,-76.30000305175781,36.81666564941406,TQUK,PORTSMOUTH,CONUS
MAIN,-2,-157.88333129882812,21.366666793823242,TRAH,TRIPLER,CONUS
MAIN,-2,-27.049999237060547,38.71666717529297,TRZP,PRAIA DE VITORIA,STRATEGIC
MAIN,-2,-91.13555908203125,43.05083465576172,TSDG,PRAIRIE DU CHIEN,CONUS
MAIN,-2,-86.46666717529297,32.45000076293945,TSKU,PRATTVILLE,CONUS
MAIN,-2,-122.45138549804688,37.79999923706055,TSRD,PRESIDIO OF SFRAN,CONUS
MAIN,-2,-71.41666412353516,41.83333206176758,TTWX,PROVIDENCE,CONUS
MAIN,-2,-71.4000015258789,41.81666564941406,TTWZ,PROVIDENCE,CONUS
MAIN,-2,-122.48332977294922,47.150001525878906,TUJL,PUGET SOUND,CONUS
MAIN,-2,-65.0,18.5,TUMM,PUERTO RICO OPARE,STRATEGIC
MAIN,-2,129.0822296142578,35.08333206176758,TVJD,PUSAN MILITARY TE,STRATEGIC
MAIN,-2,58.54999923706055,23.616666793823242,TVXA,MINA QABOOS,STRATEGIC
MAIN,-2,-77.30000305175781,38.5,TVYC,QUANTICO BASE  CA,CONUS
MAIN,-2,-77.30000305175781,38.5,TVYX,QUANTICO,CONUS
MAIN,-2,-77.30000305175781,38.5,TVYY,QUANTICO,CONUS
MAIN,-2,-116.16222381591797,34.296112060546875,TWAC,TWENTYNINE PALMS,CONUS
MAIN,-2,-71.01667022705078,42.25,TWEG,QUINCY,CONUS
MAIN,-2,-71.01667022705078,42.25,TWEH,QUINCY,CONUS
MAIN,-2,-71.41222381591797,41.59722137451172,TWLR,QUONSET STATE,CONUS
MAIN,-2,-80.6500015258789,37.099998474121094,TWUT,RADFORD ARSENAL,CONUS
MAIN,-2,-79.23332977294922,34.983333587646484,TWVH,RAEFORD,CONUS
MAIN,-2,-80.81666564941406,37.91666793823242,TWWH,RAINELLE,CONUS
MAIN,-2,-78.6500015258789,35.75,TWZR,RALEIGH,CONUS
MAIN,-2,-78.7874984741211,35.877777099609375,TXCE,RALEIGH DURHAM IN,CONUS
MAIN,-2,7.606389045715332,49.43611145019531,TYFR,RAMSTEIN AB,STRATEGIC
MAIN,-2,-98.2780532836914,29.528888702392578,TYMX,JBSA RANDOLPH AFB,CONUS
MAIN,-2,-103.23332977294922,44.099998474121094,TZHY,RAPID CITY,CONUS
MAIN,-2,48.63333511352539,28.100000381469727,TZL4,RAS AL MISHAB,STRATEGIC
MAIN,-2,-81.08333587646484,41.54999923706055,TZRL,RAVENNA AMMO PLNT,CONUS
MAIN,-2,54.0,16.933332443237305,TZYR,SALALAH MINA RAYS,STRATEGIC
MAIN,-2,-75.91666412353516,40.33333206176758,UABS,READING,CONUS
MAIN,-2,-75.96527862548828,40.37861251831055,UABY,READING RGNL CARL,CONUS
MAIN,-2,-74.3499984741211,40.08333206176758,UAKE,RED BANK,CONUS
MAIN,-2,-94.26667022705078,33.41666793823242,UAUU,RED RIVER DEPOT,CONUS
MAIN,-2,-94.26667022705078,33.41666793823242,UAUW,RED RIVER DEPOT,CONUS
MAIN,-2,-86.68472290039062,34.678611755371094,UBHP,REDSTONE AAF,CONUS
MAIN,-2,-86.66666412353516,34.61666488647461,UBHS,REDSTONE ARSENAL,CONUS
MAIN,-2,-102.03666687011719,33.59027862548828,UBNS,REESE AIRPARK,CONUS
MAIN,-2,-76.82971954345703,39.469444274902344,UCMH,REISTERSTOWN,CONUS
MAIN,-2,-119.80000305175781,39.53333282470703,UCTE,RENO,CONUS
MAIN,-2,-119.76805877685547,39.499168395996094,UCTL,RENO TAHOE INTL,CONUS
MAIN,-2,-94.55833435058594,38.850833892822266,UEBL,KANSAS CITY SOUTH,CONUS
MAIN,-2,-94.55000305175781,38.83333206176758,UEBP,RICHARDS GEBAUR,CONUS
MAIN,-2,-122.36666870117188,37.91666793823242,UEND,RICHMOND,CONUS
MAIN,-2,-77.43333435058594,37.56666564941406,UEXL,RICHMOND,CONUS
MAIN,-2,-77.44999694824219,37.56666564941406,UEXP,RICHMOND,CONUS
MAIN,-2,-77.43333435058594,37.41666793823242,UFCS,RICHMOND QM DEPOT,CONUS
MAIN,-2,-77.43333435058594,37.41666793823242,UFCV,RICHMOND DEF SUP,CONUS
MAIN,-2,-77.45111083984375,37.41972351074219,UFD1,RICHMOND,CONUS
MAIN,-2,-96.83055877685547,39.29888916015625,UFSC,RILEY,CONUS
MAIN,-2,-94.36055755615234,46.09111022949219,UGCF,RAY S MILLER AAF,CONUS
MAIN,-2,-89.55000305175781,35.75,UGCS,RIPLEY,CONUS
MAIN,-2,46.725555419921875,24.712778091430664,UGZX,RIYADH AB,STRATEGIC
MAIN,-2,-79.94999694824219,37.28333282470703,UHBY,ROANOKE,CONUS
MAIN,-2,-79.97555541992188,37.32555389404297,UHCE,ROANOKE REGIONAL,CONUS
MAIN,-2,-97.82888793945312,31.067222595214844,UHGN,ROBERT GRAY AAF,CONUS
MAIN,-2,-83.5919418334961,32.64027786254883,UHHZ,ROBINS AFB,CONUS
MAIN,-2,-83.5999984741211,32.63333511352539,UHJK,ROBINS,CONUS
MAIN,-2,-77.61666870117188,43.16666793823242,UJBZ,ROCHESTER,CONUS
MAIN,-2,-90.56888580322266,41.53555679321289,UJHQ,ROCK ISLAND ARS,CONUS
MAIN,-2,-90.13333129882812,41.46666717529297,UJJA,ROCK ISLAND,CONUS
MAIN,-2,-90.58333587646484,41.5,UJJB,ROCK ISLAND,CONUS
MAIN,-2,-109.21666717529297,41.58333206176758,UJKH,ROCK SPRINGS,CONUS
MAIN,-2,-77.16666412353516,39.099998474121094,UKAP,ROCKVILLE,CONUS
MAIN,-2,-77.80000305175781,35.93333435058594,UKDP,ROCKY MOUNT,CONUS
MAIN,-2,-91.91666412353516,37.93333435058594,UKUV,ROLLA,CONUS
MAIN,-2,-85.03333282470703,34.016666412353516,ULAB,ROME,CONUS
MAIN,-2,-78.73332977294922,39.349998474121094,ULFR,ROMNEY,CONUS
MAIN,-2,-73.11666870117188,40.81666564941406,ULKB,RONKONKOMA,CONUS
MAIN,-2,-65.6433334350586,18.245277404785156,ULLT,JOSE APONTE DE LA,STRATEGIC
MAIN,-2,-94.90972137451172,39.77194595336914,ULYB,ROSECRANS MEM,CONUS
MAIN,-2,-87.88444519042969,41.995277404785156,UMEL,ROSEMONT,CONUS
MAIN,-2,-121.28333282470703,38.766666412353516,UMHK,ROSEVILLE,CONUS
MAIN,-2,-93.15249633789062,45.01750183105469,UMHZ,ROSEVILLE,CONUS
MAIN,-2,-73.63333129882812,40.79999923706055,UMLH,ROSLYN,CONUS
MAIN,-2,-104.51667022705078,33.38333511352539,UMVV,ROSWELL,CONUS
MAIN,-2,-6.3491668701171875,36.64638900756836,UMXA,ROTA,STRATEGIC
MAIN,-2,-6.349444389343262,36.64527893066406,UMXB,ROTA NS,STRATEGIC
MAIN,-2,4.449999809265137,51.88333511352539,UNAP,ROTTERDAM,STRATEGIC
MAIN,-2,-70.87916564941406,42.71666717529297,UNFA,ROWLEY,CONUS
MAIN,-2,10.0,36.0,UNQU,UNKN TUNISIA,Tunisia
MAIN,-2,-73.71666717529297,40.78333282470703,UNUW,RUSSELL GARDENS,CONUS
MAIN,-2,-92.61666870117188,32.53333282470703,UPBB,RUSTON,CONUS
MAIN,-2,-121.48332977294922,38.58333206176758,UPWJ,SACRAMENTO DEPOT,CONUS
MAIN,-2,-121.5,38.5,UPWV,SACRAMENTO,CONUS
MAIN,-2,-83.5,44.0,UQJP,SAGINAW,CONUS
MAIN,-2,-123.01667022705078,44.93333435058594,URPB,SALEM,CONUS
MAIN,-2,-97.61111450195312,38.84027862548828,URTH,SALINA,CONUS
MAIN,-2,-75.61666870117188,38.349998474121094,URWP,SALISBURY,CONUS
MAIN,-2,-111.8499984741211,40.75,USDV,SALT LAKE CITY,CONUS
MAIN,-2,-111.97777557373047,40.788333892822266,USEB,SALT LAKE CITY IN,CONUS
MAIN,-2,-81.80000305175781,34.0,USGB,SALUDA,CONUS
MAIN,-2,-98.51667022705078,29.46666717529297,USQL,SAN ANTONIO,CONUS
MAIN,-2,-98.46916961669922,29.533889770507812,USQP,SAN ANTONIO INTL,CONUS
MAIN,-2,-98.48361206054688,29.418888092041016,USQX,SAN ANTONIO,CONUS
MAIN,-2,-117.31666564941406,34.11666488647461,USTE,SAN BERNARDINO,CONUS
MAIN,-2,-117.30000305175781,34.11666488647461,USTK,SAN BERNARDINO,CONUS
MAIN,-2,-122.4000015258789,37.61666488647461,USUJ,SAN BRUNO,CONUS
MAIN,-2,-122.4000015258789,37.61666488647461,USUL,SAN BRUNO,CONUS
MAIN,-2,-117.61666870117188,33.43333435058594,USXL,SAN CLEMENTE,CONUS
MAIN,-2,-117.08333587646484,32.71666717529297,USZD,SAN DIEGO,CONUS
MAIN,-2,-117.13333129882812,32.68333435058594,USZE,SAN DIEGO,CONUS
MAIN,-2,-117.13333129882812,32.68333435058594,USZF,SAN DIEGO,CONUS
MAIN,-2,-117.16666412353516,32.75,USZV,SAN DIEGO,CONUS
MAIN,-2,-117.16666412353516,32.75,UTAC,SAN DIEGO,CONUS
MAIN,-2,-117.16666412353516,32.75,UTAD,SAN DIEGO NAVY,CONUS
MAIN,-2,-117.21666717529297,32.733333587646484,UTAR,SAN DIEGO FLETRAC,CONUS
MAIN,-2,-117.16666412353516,32.75,UTAV,SAN DIEGO  NSC,CONUS
MAIN,-2,-117.16666412353516,32.733333587646484,UTBL,SAN DIEGO GEN DY,CONUS
MAIN,-2,-117.18333435058594,32.71666717529297,UTBR,SAN DIEGO NAVSTA,CONUS
MAIN,-2,-117.19999694824219,32.70000076293945,UTBS,SAN DIEGO NAVSUB,CONUS
MAIN,-2,-117.19999694824219,32.70000076293945,UTCS,SAN DIEGO NAVAL,CONUS
MAIN,-2,-122.41666412353516,37.79999923706055,UTKS,SAN FRANCISCO,CONUS
MAIN,-2,-122.375,37.61888885498047,UTKY,SAN FRANCISCO INT,CONUS
MAIN,-2,-122.36666870117188,37.75,UTLN,SAN FRANCISCO,CONUS
MAIN,-2,-122.38333129882812,37.78333282470703,UTLS,SAN FRANCISCO,CONUS
MAIN,-2,-122.41666412353516,37.81666564941406,UTLY,SAN FRANCISCO,CONUS
MAIN,-2,-121.91666412353516,37.266666412353516,UTRY,SAN JOSE,CONUS
MAIN,-2,-121.92916870117188,37.36277770996094,UTSE,NORMAN Y MINETA S,CONUS
MAIN,-2,-121.91666412353516,37.33333206176758,UTUL,SAN JOSE,CONUS
MAIN,-2,-67.1500015258789,18.516666412353516,UTVT,SAN JUAN,STRATEGIC
MAIN,-2,-120.66666412353516,35.266666412353516,UTZU,SAN LUIS OBISPO,CONUS
MAIN,-2,-59.63333511352539,-33.68333435058594,UULA,SAN PEDRO,STRATEGIC
MAIN,-2,-6.616666793823242,4.733333110809326,UULB,SAN PEDRO,STRATEGIC
MAIN,-2,-118.25,33.75,UULX,SAN PEDRO,CONUS
MAIN,-2,-122.5,37.95000076293945,UUPL,SAN RAFAEL,CONUS
MAIN,-2,-117.8499984741211,33.70000076293945,UWCY,SANTA ANA,CONUS
MAIN,-2,-117.93333435058594,33.650001525878906,UWDE,COSTA MESA,CONUS
MAIN,-2,-117.82722473144531,33.706111907958984,UWDG,TUSTIN MCAF,CONUS
MAIN,-2,-119.6500015258789,34.41666793823242,UWES,SANTA BARBARA,CONUS
MAIN,-2,-121.96666717529297,37.349998474121094,UWGE,SANTA CLARA,CONUS
MAIN,-2,-105.94999694824219,35.68333435058594,UWLL,SANTA FE,CONUS
MAIN,-2,129.71665954589844,33.16666793823242,UYQR,SASEBO,STRATEGIC
MAIN,-2,-84.33333587646484,46.483333587646484,UZLZ,SAULT ST MARIE,CONUS
MAIN,-2,-90.11666870117188,42.099998474121094,UZVD,SAVANNA DEPOT,CONUS
MAIN,-2,-81.11666870117188,32.06666564941406,UZXF,SAVANNAH,CONUS
MAIN,-2,-81.11666870117188,32.08333206176758,UZXJ,SAVANNAH,CONUS
MAIN,-2,-81.11666870117188,32.06666564941406,UZXM,SAVANNAH,CONUS
MAIN,-2,-81.19944763183594,32.12722396850586,UZYJ,HUNTER 02,CONUS
MAIN,-2,-73.9286117553711,42.852500915527344,VBDZ,SCHENECTADY CO,CONUS
MAIN,-2,-158.0833282470703,21.483333587646484,VCHR,SCHOFIELD BRKS,CONUS
MAIN,-2,-89.83528137207031,38.5452766418457,VDYD,SCOTT AFB MIDAMER,CONUS
MAIN,-2,-118.1500015258789,33.75,VFHU,SEAL BEACH    NWS,CONUS
MAIN,-2,-118.08333587646484,33.71666717529297,VFHY,SEAL BEACH,CONUS
MAIN,-2,-118.18333435058594,33.650001525878906,VFHZ,SEAL BEACH NWS,CONUS
MAIN,-2,-122.33333587646484,47.650001525878906,VFTA,SEATTLE,CONUS
MAIN,-2,-122.31666564941406,47.599998474121094,VFTE,SEATTLE,CONUS
MAIN,-2,-122.33333587646484,47.650001525878906,VFUL,SEATTLE AIR NAT G,CONUS
MAIN,-2,-122.25,47.66666793823242,VFVD,SEATTLE,CONUS
MAIN,-2,-122.33333587646484,47.599998474121094,VFVN,SEATTLE,CONUS
MAIN,-2,-122.33333587646484,47.58333206176758,VFXM,SEATTLE NAVY PRT,CONUS
MAIN,-2,-122.3116683959961,47.45000076293945,VFZM,SEATTLE TACOMA IN,CONUS
MAIN,-2,58.28444290161133,23.593055725097656,VGHV,MUSCAT INTL,STRATEGIC
MAIN,-2,-82.83694458007812,42.613887786865234,VGLZ,SELFRIDGE ANGB,CONUS
MAIN,-2,-76.76667022705078,42.88333511352539,VHAV,SENECA ARMY DEPOT,CONUS
MAIN,-2,-76.76667022705078,42.88333511352539,VHAW,SENECA ARMY DEPOT,CONUS
MAIN,-2,-118.46666717529297,34.16666793823242,VHRJ,SEPULVEDA,CONUS
MAIN,-2,-77.96055603027344,35.33944320678711,VKAG,SEYMOUR JOHNSON A,CONUS
MAIN,-2,10.716666221618652,34.75,VKNG,SFAX,Tunisia
MAIN,-2,10.766666412353516,34.733333587646484,VKNP,SFAX,Tunisia
MAIN,-2,-119.26667022705078,35.5,VKSB,SHAFTER,CONUS
MAIN,-2,-121.26667022705078,37.83333206176758,VLLM,SHARPE ARMY DEPOT,CONUS
MAIN,-2,-80.4705581665039,33.9727783203125,VLSB,SHAW AFB,CONUS
MAIN,-2,-87.5,34.75,VMLV,SHEFFIELD,CONUS
MAIN,-2,-98.491943359375,33.988887786865234,VNVP,SHEPPARD AFB WICH,CONUS
MAIN,-2,138.49945068359375,35.00416564941406,VPRF,SHIMIZU,STRATEGIC
MAIN,-2,-93.76667022705078,32.5,VQHP,SHREVEPORT,CONUS
MAIN,-2,-93.73332977294922,32.41666793823242,VQHV,SHREVEPORT,CONUS
MAIN,-2,-120.11666870117188,40.13333511352539,VRES,SIERRA DEPOT,CONUS
MAIN,-2,14.922222137451172,37.401668548583984,VRJT,SIGONELLA,STRATEGIC
MAIN,-2,-108.31666564941406,32.766666412353516,VRVB,SILVER CITY,CONUS
MAIN,-2,-78.93611145019531,35.13194274902344,VSFP,SIMMONS AAF,CONUS
MAIN,-2,103.9094467163086,1.3605555295944214,VSMR,PAYA LEBAR,STRATEGIC
MAIN,-2,103.91666412353516,1.350000023841858,VSNF,SINGAPORE,STRATEGIC
MAIN,-2,-96.4000015258789,42.5,VSRP,SIOUX CITY,CONUS
MAIN,-2,-96.38444519042969,42.40250015258789,VSSB,SIOUX GATEWAY COL,CONUS
MAIN,-2,-96.73332977294922,43.41666793823242,VSTN,SIOUX FALLS,CONUS
MAIN,-2,-96.69999694824219,43.56666564941406,VSTP,SIOUX FALLS,CONUS
MAIN,-2,-112.01166534423828,33.434165954589844,VTNB,PHOENIX SKY HARBO,CONUS
MAIN,-2,-86.51667022705078,36.016666412353516,VUGV,SMYRNA,CONUS
MAIN,-2,-93.19999694824219,44.88333511352539,VUKL,SNELLING,CONUS
MAIN,-2,-86.25,41.68333435058594,VURP,SO BEND,CONUS
MAIN,-2,-76.28333282470703,36.93333435058594,VVMD,SO NORFOLK,CONUS
MAIN,-2,-70.30000305175781,43.68333435058594,VVRK,SO PORTLAND,CONUS
MAIN,-2,-93.13333129882812,44.983333587646484,VVYR,S ST PAUL,CONUS
MAIN,-2,-89.93333435058594,38.54999923706055,VVYX,ST LOUIS,CONUS
MAIN,-2,-70.93333435058594,42.13333511352539,VWCR,SO WEYMOUTH,CONUS
MAIN,-2,5.276111125946045,52.12722396850586,VWLB,SOESTERBERG,STRATEGIC
MAIN,-2,-71.11666870117188,42.400001525878906,VXBD,SOMERVILLE,CONUS
MAIN,-2,-70.9397201538086,42.14861297607422,VXTM,SOUTH WEYMOUTH NA,CONUS
MAIN,-2,-70.93333435058594,42.13333511352539,VXTN,S WEYMOUTH,CONUS
MAIN,-2,10.633333206176758,35.83333206176758,VXTS,SOUSSE,Tunisia
MAIN,-2,10.633333206176758,35.83333206176758,VXTY,SOUSSE,Tunisia
MAIN,-2,-87.63777923583984,41.4808349609375,VXWQ,S CHICAGO HTS,CONUS
MAIN,-2,-83.26667022705078,42.46666717529297,VXXK,SOUTHFIELD,CONUS
MAIN,-2,-95.0513916015625,29.508333206176758,VYFJ,HOUSTON GULF,CONUS
MAIN,-2,6.698611259460449,49.97666549682617,VYHK,SPANGDAHLEM AB,STRATEGIC
MAIN,-2,-90.80000305175781,43.95000076293945,VYNX,SPARTA,CONUS
MAIN,-2,-81.94999694824219,34.93333435058594,VYRR,SPARTANBURG,CONUS
MAIN,-2,-103.88333129882812,44.5,VYTD,SPEARFISH,CONUS
MAIN,-2,-90.65194702148438,38.66222381591797,VZAS,SPIRIT OF ST LOUI,CONUS
MAIN,-2,-117.53722381591797,47.61666488647461,VZBT,SPOKANE ANG,CONUS
MAIN,-2,-117.41666412353516,47.66666793823242,VZCD,SPOKANE,CONUS
MAIN,-2,-117.5352783203125,47.61916732788086,VZCR,SPOKANE INTL,CONUS
MAIN,-2,-117.6500015258789,47.635276794433594,VZDE,SPOKANE,CONUS
MAIN,-2,-104.61666870117188,36.349998474121094,VZQN,SPRINGER,CONUS
MAIN,-2,-89.66666412353516,39.83333206176758,VZUR,SPRINGFIELD,CONUS
MAIN,-2,-72.56666564941406,42.099998474121094,VZWF,SPRINGFIELD ARMRY,CONUS
MAIN,-2,-93.38861083984375,37.24555587768555,VZXY,SPRINGFIELD BRANS,CONUS
MAIN,-2,-93.31666564941406,37.18333435058594,VZYD,SPRINGFIELD,CONUS
MAIN,-2,-83.84027862548828,39.84027862548828,WAAR,SPRINGFIELD BECKL,CONUS
MAIN,-2,-87.8677749633789,42.42222213745117,WAAZ,WAUKEGAN RGNL,CONUS
MAIN,-2,-85.25,42.29999923706055,WADJ,SPRINGFIELD,CONUS
MAIN,-2,-81.33333587646484,29.866666793823242,WAZX,ST AUGUSTINE,CONUS
MAIN,-2,-94.8499984741211,39.75,WCJX,ST JOSEPH,CONUS
MAIN,-2,-84.5999984741211,43.41666793823242,WCNN,ST LOUIS,CONUS
MAIN,-2,-90.25,38.66666793823242,WCPR,ST LOUIS,CONUS
MAIN,-2,-90.26667022705078,38.650001525878906,WCPS,STLOUIS A T A S F,CONUS
MAIN,-2,-80.76667022705078,33.68333435058594,WCXE,ST MATTHEWS,CONUS
MAIN,-2,-93.08333587646484,44.95000076293945,WDEY,ST PAUL,CONUS
MAIN,-2,-85.73638916015625,38.17416763305664,WEAS,LOUISVILLE INTL S,CONUS
